ID,Name,February,March,April,May,June,July,August,September,October,November,December,January,Avg. Occupany %,Scrape,Latitude,Longitude,isSuperHost,Amenities,Bedrooms,Bathrooms
1000037817213479846,Spacious Central Plaza Shamrock 2 Bed/1 Bath,,,,,,,,,,,8.0,12.0,89,False,35.24528,-80.78713,False,"['Kitchen', 'Wifi', 'Dedicated workspace', 'Free parking on premises', 'Pets allowed', 'TV', 'Free washer – In unit', 'Free dryer – In unit', 'Central air conditioning', 'Bathtub']",2.0,1.0
1000037817213479846,Spacious Central Plaza Shamrock 2 Bed/1 Bath,9.0,28.0,0.0,0.0,30.0,30.0,0.0,0.0,18.0,29.0,0.0,13.0,90,False,35.24528,-80.78713,False,"['Kitchen', 'Wifi', 'Dedicated workspace', 'Free parking on premises', 'Pets allowed', 'TV', 'Free washer – In unit', 'Free dryer – In unit', 'Central air conditioning', 'Bathtub']",2.0,1.0
1000069291352571497,Apartment - Central Charlotte,,,,,,,,,,16.0,19.0,28.0,77,False,35.22732,-80.75828,True,"['Kitchen', 'Wifi', 'Dedicated workspace', 'Free parking on premises', 'TV', 'Washer', 'Free dryer – In unit', 'Air conditioning', 'Bathtub', 'Exterior security cameras on property']",1.0,1.0
1000069291352571497,Apartment - Central Charlotte,16.0,31.0,29.0,27.0,30.0,0.0,24.0,23.0,0.0,0.0,0.0,14.0,74,False,35.22732,-80.75828,True,"['Kitchen', 'Wifi', 'Dedicated workspace', 'Free parking on premises', 'TV', 'Washer', 'Free dryer – In unit', 'Air conditioning', 'Bathtub', 'Exterior security cameras on property']",1.0,1.0
1000245837494404624,"Minutes to Airport, UpTown ,Southend & NoDa !",,,,,,,,,,,,,82,False,35.20382,-80.88922,True,"['Kitchen', 'Wifi', 'Dedicated workspace', 'Free driveway parking on premises', 'HDTV with Amazon Prime Video, Disney+, Hulu, Netflix, HBO Max', 'Washer', 'Dryer', 'Central air conditioning', 'Private backyard – Not fully fenced', 'Exterior security cameras on property']",3.0,2.0
1000245837494404624,"Minutes to Airport, UpTown ,Southend & NoDa !",4.0,1.0,13.0,16.0,7.0,22.0,22.0,6.0,13.0,12.0,7.0,5.0,99,False,35.20382,-80.88922,True,"['Kitchen', 'Wifi', 'Dedicated workspace', 'Free driveway parking on premises', 'HDTV with Amazon Prime Video, Disney+, Hulu, Netflix, HBO Max', 'Washer', 'Dryer', 'Central air conditioning', 'Private backyard – Not fully fenced', 'Exterior security cameras on property']",3.0,2.0
1000668987456768421,Comfy Lower Lvl Apt w/ Jetted Tub Near Uptown/UNC,,,,,,,,,,,,8.0,83,False,35.3023,-80.816,True,"['Garden view', 'Kitchen', 'Wifi', 'Dedicated workspace', 'Free driveway parking on premises – 3 spaces', 'Pets allowed', '55-inch HDTV with Amazon Prime Video, Apple TV, Disney+, HBO Max, Hulu, Netflix', 'Free washer – In unit', 'Free dryer – In unit', 'Exterior security cameras on property']",3.0,2.0
1000668987456768421,Comfy Lower Lvl Apt w/ Jetted Tub Near Uptown/UNC,2.0,31.0,3.0,16.0,16.0,20.0,10.0,14.0,18.0,19.0,4.0,0.0,81,False,35.3023,-80.816,True,"['Garden view', 'Kitchen', 'Wifi', 'Dedicated workspace', 'Free driveway parking on premises – 3 spaces', 'Pets allowed', '55-inch HDTV with Amazon Prime Video, Apple TV, Disney+, HBO Max, Hulu, Netflix', 'Free washer – In unit', 'Free dryer – In unit', 'Exterior security cameras on property']",3.0,2.0
1001073329354195789,Upscale King 2BR Suite—Mins to Uptown Charlotte!,24.0,12.0,31.0,24.0,29.0,29.0,28.0,28.0,8.0,27.0,17.0,4.0,81,False,35.1542,-80.96724,False,"['Kitchen', 'Wifi', 'Dedicated workspace', 'Free parking on premises', 'Shared pool', 'Pets allowed', 'TV', 'Washer', 'Dryer', 'Air conditioning']",2.0,2.0
10010966,Gorgeous Downtown 3B/3Bath Gem close to everything,30.0,30.0,31.0,28.0,30.0,30.0,31.0,30.0,31.0,31.0,30.0,31.0,83,False,35.23461,-80.84003,False,"['Kitchen', 'Wifi', 'Free parking on premises', 'TV with standard cable', 'Washer', 'Dryer', 'Air conditioning', 'Indoor fireplace', 'Hair dryer']",3.0,3.0
1001540178861655503,Charming Home in heart of Charlotte,27.0,5.0,25.0,29.0,31.0,29.0,22.0,23.0,28.0,30.0,17.0,12.0,70,False,35.2373,-80.7918,True,"['Kitchen', 'Wifi', 'Dedicated workspace', 'Free residential garage on premises – 4 spaces', 'Pets allowed', 'TV', 'Washer', 'Free dryer – In unit', 'Air conditioning', 'Exterior security cameras on property']",2.0,1.0
1002144192688093450,HOS Moody Blues,6.0,2.0,9.0,14.0,19.0,17.0,28.0,26.0,16.0,10.0,18.0,18.0,89,False,35.23337,-80.83701,True,"['Kitchen', 'Wifi', 'Free parking on premises', 'TV', 'Free washer – In unit', 'Free dryer – In unit', 'Central air conditioning', 'Bathtub', 'Private patio or balcony', 'Carbon monoxide alarm']",1.0,1.0
1002148806249804437,"Modern Living by PNC Pavilion, UNC, Bars & Grocery",,2.0,29.0,28.0,11.0,0.0,29.0,29.0,0.0,23.0,0.0,0.0,79,False,,,,,1.0,1.0
1003062407364302233,Colorful Charlotte Townhome,,,,,,,,,,,,16.0,76,False,35.36179,-80.86108,False,"['Kitchen', 'Wifi', 'Dedicated workspace', 'Free parking on premises', 'Shared pool', 'TV', 'Washer', 'Dryer', 'Air conditioning', 'Exterior security cameras on property']",3.0,2.5
1003062407364302233,Colorful Charlotte Townhome,13.0,9.0,28.0,31.0,30.0,31.0,30.0,25.0,17.0,15.0,10.0,11.0,61,False,35.36179,-80.86108,False,"['Kitchen', 'Wifi', 'Dedicated workspace', 'Free parking on premises', 'Shared pool', 'TV', 'Washer', 'Dryer', 'Air conditioning', 'Exterior security cameras on property']",3.0,2.5
1003115290671862631,1 bedroom Condo - Commonwealth,,,,,,,,,,,,,70,False,35.21222,-80.79168,True,"['Kitchen', 'Wifi', 'Free parking on premises', 'TV with standard cable', 'Washer', 'Air conditioning', 'Bathtub', 'Backyard', 'Hair dryer', 'Refrigerator']",1.0,1.0
1003115290671862631,1 bedroom Condo - Commonwealth,,5.0,0.0,19.0,30.0,0.0,0.0,0.0,0.0,15.0,0.0,5.0,71,False,35.21222,-80.79168,True,"['Kitchen', 'Wifi', 'Free parking on premises', 'TV with standard cable', 'Washer', 'Air conditioning', 'Bathtub', 'Backyard', 'Hair dryer', 'Refrigerator']",1.0,1.0
1003193850988385556,Standard Room with 1 King Bed,,7.0,,2.0,10.0,1.0,1.0,5.0,3.0,0.0,0.0,0.0,71,False,35.04075,-80.84809,False,"['Wifi', 'Dedicated workspace', 'Free parking on premises', 'TV with standard cable', 'Elevator', 'Air conditioning', 'Hair dryer', 'Refrigerator', 'Microwave', 'Breakfast']",1.0,1.0
1003606782905082651,NEW & Spacious Uptown/Southend CLT Home!,,,,,,,,,,18.0,21.0,0.0,90,False,35.20064,-80.89896,False,"['Kitchen', 'Wifi', 'Dedicated workspace', 'Free parking on premises', 'Pets allowed', 'HDTV with Netflix, DVD player, Apple TV, Fire TV, Hulu, Amazon Prime Video, HBO Max, Disney+', 'Washer', 'Free dryer – In unit', 'Central air conditioning', 'Exterior security cameras on property']",3.0,2.5
1003606782905082651,NEW & Spacious Uptown/Southend CLT Home!,0.0,30.0,0.0,0.0,0.0,0.0,0.0,28.0,27.0,0.0,0.0,30.0,89,False,35.20064,-80.89896,False,"['Kitchen', 'Wifi', 'Dedicated workspace', 'Free parking on premises', 'Pets allowed', 'HDTV with Netflix, DVD player, Apple TV, Fire TV, Hulu, Amazon Prime Video, HBO Max, Disney+', 'Washer', 'Free dryer – In unit', 'Central air conditioning', 'Exterior security cameras on property']",3.0,2.5
1003885875953161401,King Bed| 15 Mins to Uptown Charlotte| Fast Wi-Fi,,,,,,,,,,,,,67,False,35.15665,-80.72122,True,"['Kitchen', 'Wifi', 'Dedicated workspace', 'Free parking on premises', '65 inch HDTV', 'Free washer – In unit', 'Free dryer – In unit', 'Air conditioning', 'Bathtub', 'Exterior security cameras on property']",3.0,2.5
1003885875953161401,King Bed| 15 Mins to Uptown Charlotte| Fast Wi-Fi,7.0,4.0,3.0,22.0,29.0,31.0,30.0,25.0,31.0,30.0,0.0,19.0,54,False,35.15665,-80.72122,True,"['Kitchen', 'Wifi', 'Dedicated workspace', 'Free parking on premises', '65 inch HDTV', 'Free washer – In unit', 'Free dryer – In unit', 'Air conditioning', 'Bathtub', 'Exterior security cameras on property']",3.0,2.5
1003885875953161401,King Bed| 15 Mins to Uptown Charlotte| Fast Wi-Fi,0.0,2.0,,,,,,,,,,,92,False,35.15665,-80.72122,True,"['Kitchen', 'Wifi', 'Dedicated workspace', 'Free parking on premises', '65 inch HDTV', 'Free washer – In unit', 'Free dryer – In unit', 'Air conditioning', 'Bathtub', 'Exterior security cameras on property']",3.0,2.5
1004434640241073803,Fantastic Home * 6 Bedrooms * Awesome Location,,22.0,9.0,25.0,10.0,26.0,22.0,22.0,16.0,14.0,30.0,16.0,79,False,35.2042,-80.8444,True,"['Kitchen', 'Wifi', 'Dedicated workspace', 'Free parking on premises', 'TV', 'Washer', 'Dryer', 'Air conditioning', 'Bathtub', 'Patio or balcony']",6.0,4.0
1004434640241073803,Fantastic Home * 6 Bedrooms * Awesome Location,19.0,17.0,,,,,,,,,,,72,False,35.2042,-80.8444,True,"['Kitchen', 'Wifi', 'Dedicated workspace', 'Free parking on premises', 'TV', 'Washer', 'Dryer', 'Air conditioning', 'Bathtub', 'Patio or balcony']",6.0,4.0
1004435337097148365,{Retreat Treat} UNCC Hot Tub & Campfire-Sleeps 16!,,20.0,6.0,10.0,20.0,25.0,26.0,15.0,25.0,29.0,13.0,7.0,67,False,35.28106,-80.74266,True,"['Kitchen', 'Wifi', 'Dedicated workspace', 'Free parking on premises', 'Hot tub', 'TV', 'Washing machine', 'Free dryer', 'Air conditioning', 'Exterior security cameras on property']",5.0,3.0
1004435337097148365,{Retreat Treat} UNCC Hot Tub & Campfire-Sleeps 16!,8.0,12.0,,,,,,,,,,,79,False,35.28106,-80.74266,True,"['Kitchen', 'Wifi', 'Dedicated workspace', 'Free parking on premises', 'Hot tub', 'TV', 'Washing machine', 'Free dryer', 'Air conditioning', 'Exterior security cameras on property']",5.0,3.0
1004896650906664611,Terrific Charlotte town home,8.0,12.0,3.0,15.0,15.0,17.0,10.0,17.0,18.0,11.0,12.0,16.0,88,False,35.20562,-80.87093,False,"['Kitchen', 'Wifi', 'Free parking on premises', 'TV', 'Free washer – In unit', 'Free dryer – In unit', 'Air conditioning']",2.0,3.0
1004896650906664611,Terrific Charlotte town home,9.0,6.0,3.0,0.0,,,,,,,,,61,False,35.20562,-80.87093,False,"['Kitchen', 'Wifi', 'Free parking on premises', 'TV', 'Free washer – In unit', 'Free dryer – In unit', 'Air conditioning']",2.0,3.0
1004998945900309570,{The Escape} Amazing Pool and Billiards,,,,22.0,15.0,20.0,17.0,28.0,29.0,22.0,24.0,23.0,83,False,35.09172,-80.81419,True,"['Kitchen', 'Wifi', 'Dedicated workspace', 'Free driveway parking on premises – 6 spaces', 'Private outdoor pool - available seasonally, open 24 hours, heated, pool cover', 'Pets allowed', 'TV', 'Washer', 'Free dryer', 'Exterior security cameras on property']",5.0,3.5
1004998945900309570,{The Escape} Amazing Pool and Billiards,22.0,15.0,11.0,8.0,,,17.0,21.0,27.0,24.0,22.0,24.0,80,False,35.09172,-80.81419,True,"['Kitchen', 'Wifi', 'Dedicated workspace', 'Free driveway parking on premises – 6 spaces', 'Private outdoor pool - available seasonally, open 24 hours, heated, pool cover', 'Pets allowed', 'TV', 'Washer', 'Free dryer', 'Exterior security cameras on property']",5.0,3.5
1005246309123033881,{The Luxe} Heated Pool | Elegant Uptown,0.0,0.0,0.0,0.0,,4.0,9.0,18.0,14.0,22.0,25.0,18.0,75,False,35.2264,-80.81816,True,"['Kitchen', 'Wifi', 'Dedicated workspace', 'Free parking on premises', 'Private pool - available all year', 'Private hot tub', 'Pets allowed', 'TV', 'Washer', 'Exterior security cameras on property']",3.0,2.5
1005261131730210520,{Sport Villa} Uptown Near Stadium & Ballpark,11.0,15.0,10.0,14.0,,,,,,,,,77,False,35.23368,-80.85426,True,"['Kitchen', 'Wifi', 'Dedicated workspace', 'Free parking on premises', 'Private hot tub', 'Pets allowed', 'TV', 'Washer', 'Free dryer', 'Exterior security cameras on property']",5.0,2.0
1005664717717024113,Perfect Getaway Prime Location w/Game Room & HoTub,,,,9.0,14.0,13.0,19.0,21.0,23.0,26.0,24.0,22.0,92,False,35.2058,-80.901,True,"['Kitchen', 'Wifi', 'Dedicated workspace', 'Free parking on premises', 'Hot tub', 'Pets allowed', 'TV', 'Washer', 'Dryer', 'Exterior security cameras on property']",5.0,2.5
1005664717717024113,Perfect Getaway Prime Location w/Game Room & HoTub,29.0,20.0,10.0,15.0,24.0,11.0,,0.0,0.0,0.0,29.0,0.0,71,False,35.2058,-80.901,True,"['Kitchen', 'Wifi', 'Dedicated workspace', 'Free parking on premises', 'Hot tub', 'Pets allowed', 'TV', 'Washer', 'Dryer', 'Exterior security cameras on property']",5.0,2.5
1005749145256960166,Cozy Studio in Charlotte/Pineville!,24.0,0.0,0.0,0.0,0.0,0.0,,31.0,26.0,0.0,0.0,0.0,79,False,35.08616,-80.8637,True,"['Kitchen', 'Wifi', 'Free parking on premises', 'Pets allowed', 'TV', 'Washer', 'Dryer', 'Air conditioning', 'Patio or balcony', 'Exterior security cameras on property']",0.0,1.0
1005870163898429941,Spacious 1br in Charlotte/Pineville!,0.0,30.0,0.0,15.0,11.0,0.0,,,,,,,63,False,35.08653,-80.86498,True,"['Kitchen', 'Wifi', 'Dedicated workspace', 'Free parking on premises', 'Pets allowed', 'TV', 'Washer', 'Air conditioning', 'Patio or balcony', 'Exterior security cameras on property']",1.0,1.0
1005948634809001914,Eclectic Retreat,,,,,,10.0,14.0,12.0,10.0,30.0,24.0,0.0,82,False,,,,,3.0,2.0
1005948634809001914,Eclectic Retreat,0.0,0.0,0.0,0.0,0.0,23.0,,,,,,,70,False,,,,,3.0,2.0
1006423430214763160,Orange Crush,,,,,,29.0,14.0,28.0,0.0,31.0,30.0,0.0,93,False,35.1902,-80.8813,False,"['Wifi', 'Free driveway parking on premises – 2 spaces', 'HDTV with Roku', 'AC - split type ductless system', 'Bathtub', 'Private patio or balcony', 'Hair dryer', 'Microwave', 'Long term stays allowed', 'Exterior security cameras on property']",1.0,1.0
1006423430214763160,Orange Crush,0.0,29.0,0.0,13.0,0.0,0.0,8.0,2.0,11.0,24.0,0.0,0.0,88,False,35.1902,-80.8813,False,"['Wifi', 'Free driveway parking on premises – 2 spaces', 'HDTV with Roku', 'AC - split type ductless system', 'Bathtub', 'Private patio or balcony', 'Hair dryer', 'Microwave', 'Long term stays allowed', 'Exterior security cameras on property']",1.0,1.0
1007189025554621129,Extremely Private°Uptown FIVE min°Smart TV°2 Beds,15.0,0.0,0.0,17.0,20.0,0.0,,,,,,,73,False,,,,,2.0,1.0
1007244555493903945,Southend Cottage,,,,,,,,19.0,5.0,9.0,26.0,29.0,73,False,35.1947,-80.8631,False,"['Kitchen', 'Wifi', 'Free parking on premises', 'Pets allowed', 'TV', 'Air conditioning', 'Bathtub', 'Private backyard', 'Indoor fireplace', 'Hair dryer']",2.0,1.0
1007244555493903945,Southend Cottage,24.0,29.0,31.0,30.0,22.0,18.0,28.0,19.0,,,,,83,False,35.1947,-80.8631,False,"['Kitchen', 'Wifi', 'Free parking on premises', 'Pets allowed', 'TV', 'Air conditioning', 'Bathtub', 'Private backyard', 'Indoor fireplace', 'Hair dryer']",2.0,1.0
1008174951807043660,Cozy Loft • Near > Plaza+Uptown,,,,,,,,25.0,17.0,21.0,23.0,28.0,68,False,35.21013,-80.81491,True,"['Kitchen', 'Wifi', 'Dedicated workspace', 'Free parking on premises', 'TV', 'Washer', 'Dryer', 'Air conditioning', 'Hair dryer', 'Exterior security cameras on property']",1.0,1.0
1008174951807043660,Cozy Loft • Near > Plaza+Uptown,29.0,31.0,25.0,19.0,21.0,21.0,23.0,14.0,,,,,60,False,35.21013,-80.81491,True,"['Kitchen', 'Wifi', 'Dedicated workspace', 'Free parking on premises', 'TV', 'Washer', 'Dryer', 'Air conditioning', 'Hair dryer', 'Exterior security cameras on property']",1.0,1.0
1008785920955775121,Poolside Bungalow w/ Fire Pit Fun | King Suite,,,,,,,,,11.0,9.0,21.0,24.0,83,False,35.1776,-80.8554,True,"['Kitchen', 'Wifi', 'Free parking on premises', 'Private pool - available seasonally', 'Pets allowed', 'TV', 'Free washer – In unit', 'Free dryer – In unit', 'Central air conditioning', 'Exterior security cameras on property']",3.0,2.0
1008785920955775121,Poolside Bungalow w/ Fire Pit Fun | King Suite,29.0,27.0,28.0,27.0,25.0,15.0,17.0,8.0,,,,,84,False,35.1776,-80.8554,True,"['Kitchen', 'Wifi', 'Free parking on premises', 'Private pool - available seasonally', 'Pets allowed', 'TV', 'Free washer – In unit', 'Free dryer – In unit', 'Central air conditioning', 'Exterior security cameras on property']",3.0,2.0
1008815238062137824,Mid-Century Bliss Retreat,,,,,,22.0,11.0,15.0,14.0,24.0,17.0,18.0,76,False,35.22076,-80.75158,True,"['Kitchen', 'Wifi', 'Dedicated workspace', 'Free parking on premises', '65 inch HDTV with Hulu, Fire TV, Netflix, Amazon Prime Video', 'Central air conditioning', 'Bathtub', 'Private backyard – Fully fenced', 'Refrigerator', 'Exterior security cameras on property']",3.0,1.0
1008815238062137824,Mid-Century Bliss Retreat,30.0,29.0,23.0,24.0,13.0,12.0,22.0,3.0,,,,,71,False,35.22076,-80.75158,True,"['Kitchen', 'Wifi', 'Dedicated workspace', 'Free parking on premises', '65 inch HDTV with Hulu, Fire TV, Netflix, Amazon Prime Video', 'Central air conditioning', 'Bathtub', 'Private backyard – Fully fenced', 'Refrigerator', 'Exterior security cameras on property']",3.0,1.0
1009321719705951057,10 Min From Downtown & Airport! Fenced-In Yard,,,,,,30.0,9.0,10.0,0.0,0.0,0.0,27.0,73,False,35.21305,-80.90737,True,"['Kitchen', 'Wifi', 'Dedicated workspace', 'Free parking on premises', 'Pets allowed', 'TV', 'Free washer – In unit', 'Free dryer – In unit', 'Central air conditioning', 'Exterior security cameras on property']",3.0,2.0
1009321719705951057,10 Min From Downtown & Airport! Fenced-In Yard,0.0,0.0,31.0,23.0,0.0,29.0,23.0,16.0,12.0,17.0,9.0,9.0,69,False,35.21305,-80.90737,True,"['Kitchen', 'Wifi', 'Dedicated workspace', 'Free parking on premises', 'Pets allowed', 'TV', 'Free washer – In unit', 'Free dryer – In unit', 'Central air conditioning', 'Exterior security cameras on property']",3.0,2.0
1009604112418356428,3 BDR Home in Charlotte,11.0,13.0,17.0,24.0,12.0,14.0,15.0,10.0,,,,,83,False,35.3504,-80.7398,False,"['Kitchen', 'Wifi', 'Free parking on premises', '40 inch TV', 'Free washer – In building', 'Free dryer – In building', 'Central air conditioning', 'Bathtub', 'Private patio or balcony', 'Private backyard']",3.0,2.0
1010026725229739303,Fire Pit | Expansive Yard | 3 BR,,,,,,,,14.0,7.0,5.0,17.0,27.0,68,False,35.11376,-80.78192,False,"['Kitchen', 'Wifi', 'Free parking on premises', 'TV', 'Washer', 'Free dryer – In unit', 'Air conditioning', 'Bathtub', 'Private patio or balcony', 'Exterior security cameras on property']",3.0,2.0
1010026725229739303,Fire Pit | Expansive Yard | 3 BR,25.0,17.0,22.0,17.0,28.0,15.0,10.0,14.0,14.0,3.0,,,75,False,35.11376,-80.78192,False,"['Kitchen', 'Wifi', 'Free parking on premises', 'TV', 'Washer', 'Free dryer – In unit', 'Air conditioning', 'Bathtub', 'Private patio or balcony', 'Exterior security cameras on property']",3.0,2.0
1010146641614959506,LOSO Modern Home | Minutes from Airport/Southend!,,,,14.0,25.0,0.0,0.0,7.0,6.0,0.0,17.0,17.0,75,False,,,,,3.0,3.5
1011190583966513017,Charming Uptown Charlotte Oasis,19.0,27.0,31.0,25.0,28.0,22.0,18.0,18.0,17.0,14.0,,,66,False,35.218,-80.8709,True,"['Kitchen', 'Wifi', 'Dedicated workspace', 'Free parking on premises', 'TV', 'Washer', 'Dryer', 'Air conditioning', 'Bathtub', 'Exterior security cameras on property']",2.0,1.0
1011546689031907461,4B Home with Downstair Room,,,,,,,,,,15.0,14.0,24.0,43,False,,,,,4.0,2.5
1011546689031907461,4B Home with Downstair Room,17.0,26.0,28.0,27.0,29.0,8.0,31.0,30.0,12.0,0.0,14.0,0.0,82,False,,,,,4.0,2.5
1012218007225432894,Tranquil Charlotte Home w/Office,,,,,,,,,,,,,53,False,35.26907,-80.8473,False,"['Kitchen', 'Wifi', 'Dedicated workspace', 'Free parking garage on premises – 1 space', 'TV', 'Free washer – In building', 'Free dryer – In building', 'Central air conditioning', 'Bathtub', 'Exterior security cameras on property']",3.0,2.0
1012218007225432894,Tranquil Charlotte Home w/Office,14.0,1.0,17.0,30.0,30.0,31.0,30.0,25.0,31.0,29.0,22.0,21.0,74,False,35.26907,-80.8473,False,"['Kitchen', 'Wifi', 'Dedicated workspace', 'Free parking garage on premises – 1 space', 'TV', 'Free washer – In building', 'Free dryer – In building', 'Central air conditioning', 'Bathtub', 'Exterior security cameras on property']",3.0,2.0
1012218007225432894,Tranquil Charlotte Home w/Office,24.0,3.0,,,,,,,,,,,68,False,35.26907,-80.8473,False,"['Kitchen', 'Wifi', 'Dedicated workspace', 'Free parking garage on premises – 1 space', 'TV', 'Free washer – In building', 'Free dryer – In building', 'Central air conditioning', 'Bathtub', 'Exterior security cameras on property']",3.0,2.0
1012917109595678688,Local Oasis North End EV Two Bed,,,31.0,0.0,29.0,31.0,30.0,31.0,0.0,0.0,31.0,30.0,81,False,35.2509,-80.8422,True,"['Kitchen', 'Wifi', 'Dedicated workspace', 'Free parking on premises', 'Pets allowed', '55 inch HDTV with Netflix', 'EV charger - level 2', 'Free washer – In unit', 'Free dryer – In unit', 'Exterior security cameras on property']",2.0,1.0
1012917109595678688,Local Oasis North End EV Two Bed,28.0,26.0,,,2.0,2.0,9.0,1.0,2.0,7.0,4.0,3.0,83,False,35.2509,-80.8422,True,"['Kitchen', 'Wifi', 'Dedicated workspace', 'Free parking on premises', 'Pets allowed', '55 inch HDTV with Netflix', 'EV charger - level 2', 'Free washer – In unit', 'Free dryer – In unit', 'Exterior security cameras on property']",2.0,1.0
1013579423386720190,Standard Room with 2 Queen Beds,0.0,0.0,,0.0,0.0,0.0,0.0,0.0,0.0,0.0,0.0,0.0,95,False,35.03907,-80.84744,False,"['Wifi', 'Dedicated workspace', 'Free parking on premises', 'TV with standard cable/satellite', 'Lift', 'Air conditioning', 'Hair dryer', 'Fridge', 'Microwave', 'Breakfast']",1.0,1.0
1013634266383639529,Gorgeous Family Home w/ Hot Tub,0.0,0.0,,4.0,9.0,8.0,13.0,10.0,22.0,20.0,8.0,7.0,31,False,,,,,,
1015394669874429936,Luxury Artistry Places 2,13.0,14.0,,,,,,,,,,,75,False,,,,,3.0,2.0
1015478269909331363,Newly Built * Monopoly Manner | Rooftop | Uptown,,27.0,17.0,4.0,0.0,0.0,22.0,17.0,21.0,12.0,0.0,13.0,70,False,,,,,3.0,4.0
1015478269909331363,Newly Built * Monopoly Manner | Rooftop | Uptown,0.0,0.0,,8.0,20.0,24.0,29.0,27.0,19.0,25.0,10.0,18.0,79,False,,,,,3.0,4.0
1015831765478678044,Entire unique home near uptown - Myers park,0.0,0.0,,,,,,,,,,,90,False,,,,,2.0,2.5
1015905793703441058,Poolside Paradise in the Heart of Charlotte,,,0.0,15.0,20.0,22.0,27.0,27.0,27.0,28.0,30.0,30.0,53,False,35.1842,-80.7098,True,"['Kitchen', 'Wifi', 'Dedicated workspace', 'Free residential garage on premises', 'Private outdoor pool - available seasonally', 'Hot tub', 'Pets allowed', 'TV', 'Washer', 'Free dryer – In unit']",5.0,3.0
1015905793703441058,Poolside Paradise in the Heart of Charlotte,21.0,9.0,4.0,0.0,,4.0,0.0,14.0,22.0,9.0,9.0,29.0,73,False,35.1842,-80.7098,True,"['Kitchen', 'Wifi', 'Dedicated workspace', 'Free residential garage on premises', 'Private outdoor pool - available seasonally', 'Hot tub', 'Pets allowed', 'TV', 'Washer', 'Free dryer – In unit']",5.0,3.0
1016092549168455576,Modern 3Bd Townhome - 1 min to Uptown - KING Bed,14.0,0.0,29.0,0.0,,,,,,,,,65,False,,,,,3.0,2.0
1016699317659897237,Charlotte Charm w/ Outdoor TV,,,,,13.0,3.0,11.0,24.0,27.0,23.0,22.0,10.0,85,False,35.2376,-80.7524,True,"['Kitchen', 'Wifi', 'Free parking on premises', 'Pets allowed', 'TV', 'Washer', 'Free dryer – In unit', 'Air conditioning', 'Bathtub', 'Exterior security cameras on property']",3.0,1.0
1016699317659897237,Charlotte Charm w/ Outdoor TV,3.0,0.0,2.0,5.0,1.0,0.0,24.0,6.0,13.0,12.0,25.0,29.0,73,False,35.2376,-80.7524,True,"['Kitchen', 'Wifi', 'Free parking on premises', 'Pets allowed', 'TV', 'Washer', 'Free dryer – In unit', 'Air conditioning', 'Bathtub', 'Exterior security cameras on property']",3.0,1.0
1016788801467932757,2BR Fully Furnished Apartment Uptown - BOA Stadium,31.0,23.0,19.0,22.0,24.0,21.0,,2.0,7.0,8.0,14.0,9.0,80,False,35.2274,-80.8469,True,"['Kitchen', 'Wifi', 'Dedicated workspace', 'Outdoor pool', 'Pets allowed', 'TV', 'Lift', 'Washing machine', 'Dryer', 'Smoke alarm']",2.0,2.0
1017319249998326273,Summit Place,17.0,16.0,19.0,10.0,8.0,8.0,9.0,11.0,14.0,11.0,27.0,18.0,74,False,35.22865,-80.86358,True,"['Kitchen', 'Wifi', 'Dedicated workspace', 'Free parking on premises', 'TV', 'Air conditioning', 'Bathtub', 'Private backyard', 'Hair dryer', 'Exterior security cameras on property']",3.0,2.0
1017653903898490772,Rare 2 bdr Townhome by Noda - 10 min drive uptown,24.0,20.0,12.0,19.0,17.0,15.0,,,,,,,70,False,35.23454,-80.8078,True,"['Kitchen', 'Wifi', 'Dedicated workspace', 'Free parking on premises', 'Pets allowed', 'TV', 'Washer', 'Free dryer – In unit', 'Air conditioning', 'Exterior security cameras on property']",2.0,1.5
1018247716254091170,Charlotte Oasis 4BR/2.5BA,,,,,,,17.0,21.0,20.0,26.0,30.0,26.0,78,False,35.11877,-80.87915,True,"['Kitchen', 'Wifi', 'Dedicated workspace', 'Free parking on premises', 'TV', 'Washer', 'Dryer', 'Air conditioning', 'Bathtub', 'Exterior security cameras on property']",4.0,2.5
1018247716254091170,Charlotte Oasis 4BR/2.5BA,25.0,19.0,28.0,17.0,20.0,17.0,,,0.0,0.0,0.0,15.0,85,False,35.11877,-80.87915,True,"['Kitchen', 'Wifi', 'Dedicated workspace', 'Free parking on premises', 'TV', 'Washer', 'Dryer', 'Air conditioning', 'Bathtub', 'Exterior security cameras on property']",4.0,2.5
1018370183673384914,3 BDR Townhouse!,24.0,21.0,0.0,0.0,16.0,19.0,,,,,,,88,False,35.07796,-80.89575,True,"['Waterfront', 'Kitchen', 'Wifi', 'Free parking on premises – 2 spaces', 'Pool', 'Pets allowed', 'TV', 'Washing machine', 'Free dryer – In unit', 'Air conditioning']",3.0,1.5
1018824224669655437,Retreat To A Brand New Haven.,,,,,,,,,,,2.0,8.0,64,False,35.051,-80.7373,True,"['Kitchen', 'Wifi', 'Dedicated workspace', 'Free driveway parking on premises – 2 spaces', 'TV', 'Washer', 'Free dryer', 'Central air conditioning', 'Bathtub', 'Exterior security cameras on property']",2.0,1.0
1018824224669655437,Retreat To A Brand New Haven.,0.0,28.0,23.0,21.0,10.0,6.0,,,,,,,78,False,35.051,-80.7373,True,"['Kitchen', 'Wifi', 'Dedicated workspace', 'Free driveway parking on premises – 2 spaces', 'TV', 'Washer', 'Free dryer', 'Central air conditioning', 'Bathtub', 'Exterior security cameras on property']",2.0,1.0
1018986180254327181,Fully Renovated Retreat in the Heart of South End,,,,,,,,0.0,28.0,0.0,24.0,20.0,79,False,35.1891,-80.86773,True,"['Kitchen', 'Wifi', 'Free parking on premises', 'TV', 'Washer', 'Free dryer – In unit', 'Air conditioning', 'Private patio or balcony', 'Carbon monoxide alarm', 'Smoke alarm']",3.0,2.5
1018986180254327181,Fully Renovated Retreat in the Heart of South End,10.0,15.0,20.0,13.0,12.0,7.0,26.0,31.0,,,,,61,False,35.1891,-80.86773,True,"['Kitchen', 'Wifi', 'Free parking on premises', 'TV', 'Washer', 'Free dryer – In unit', 'Air conditioning', 'Private patio or balcony', 'Carbon monoxide alarm', 'Smoke alarm']",3.0,2.5
1019101015390783501,Newly Renovated Family House.,,,,,,,,10.0,3.0,14.0,17.0,24.0,66,False,35.18773,-80.76588,True,"['Kitchen', 'Wifi', 'Free parking on premises – 5 spaces', 'TV', 'Washer', 'Free dryer – In unit', 'Central air conditioning', 'Bathtub', 'Refrigerator', 'Exterior security cameras on property']",3.0,2.0
1019101015390783501,Newly Renovated Family House.,13.0,17.0,27.0,14.0,25.0,22.0,15.0,23.0,,,,,68,False,35.18773,-80.76588,True,"['Kitchen', 'Wifi', 'Free parking on premises – 5 spaces', 'TV', 'Washer', 'Free dryer – In unit', 'Central air conditioning', 'Bathtub', 'Refrigerator', 'Exterior security cameras on property']",3.0,2.0
1019381553955315826,Charlotte Garden Retreat: Dog and Golf Friendly!,,,,,,,0.0,0.0,0.0,0.0,0.0,29.0,84,False,35.11739,-80.8275,True,"['Golf course view', 'Garden view', 'Kitchen', 'Wifi', 'Dedicated workspace', 'Free parking on premises', 'Pets allowed', 'TV', 'Washing machine', 'Dryer']",2.0,2.0
1019381553955315826,Charlotte Garden Retreat: Dog and Golf Friendly!,29.0,18.0,30.0,24.0,9.0,12.0,0.0,18.0,,3.0,16.0,18.0,72,False,35.11739,-80.8275,True,"['Golf course view', 'Garden view', 'Kitchen', 'Wifi', 'Dedicated workspace', 'Free parking on premises', 'Pets allowed', 'TV', 'Washing machine', 'Dryer']",2.0,2.0
1019861609301238222,"Uptown Luxury: 2-BR, King Size Bed, 4x Parking",17.0,16.0,22.0,18.0,4.0,18.0,12.0,8.0,28.0,20.0,26.0,29.0,74,False,35.23442,-80.85455,True,"['Kitchen', 'Wifi', 'Dedicated workspace', 'Free parking on premises', 'Pets allowed', 'TV', 'Washer', 'Free dryer – In unit', 'Air conditioning', 'Bathtub']",2.0,2.5
10207853,Gorgeous Studio Apt close to Uptown,28.0,28.0,29.0,30.0,27.0,29.0,25.0,28.0,,,,,83,False,35.25469,-80.84051,True,"['Kitchen', 'Wifi – 45 Mbps', 'Free parking on premises', '50 inch HDTV with standard cable, Netflix, Hulu, premium cable, DVD player, Amazon Prime Video, Disney+', 'Central air conditioning', 'Bathtub', 'Shared patio or balcony', 'Shared backyard – Not fully fenced', 'Luggage dropoff allowed', 'Pack ’n play/Travel crib']",1.0,1.0
1021241691646483200,"Family & PetFriendly, Modern, FencedIn, Office",,,,,,,,,4.0,13.0,24.0,26.0,96,False,35.0841,-80.8632,True,"['Kitchen', 'Wifi', 'Dedicated workspace', 'Free parking on premises', 'Pets allowed', 'TV', 'Washer', 'Free dryer – In unit', 'Air conditioning', 'Exterior security cameras on property']",3.0,2.5
1021241691646483200,"Family & PetFriendly, Modern, FencedIn, Office",25.0,0.0,0.0,16.0,0.0,28.0,16.0,13.0,,,24.0,20.0,73,False,35.0841,-80.8632,True,"['Kitchen', 'Wifi', 'Dedicated workspace', 'Free parking on premises', 'Pets allowed', 'TV', 'Washer', 'Free dryer – In unit', 'Air conditioning', 'Exterior security cameras on property']",3.0,2.5
1021248905268135618,Charlotte's Modern Luxe Home - Your Stylish Haven,27.0,20.0,22.0,25.0,23.0,28.0,20.0,11.0,,,,,64,False,,,,,5.0,4.5
1021627417336722055,The Right Side Duplex,,,,,,,,,,21.0,0.0,30.0,60,False,35.2069,-80.8118,False,"['Kitchen', 'Wifi', 'Free parking on premises', 'TV', 'Washer', 'Air conditioning', 'Hair dryer']",2.0,1.0
1021627417336722055,The Right Side Duplex,27.0,31.0,30.0,21.0,27.0,22.0,21.0,18.0,28.0,0.0,,14.0,46,False,35.2069,-80.8118,False,"['Kitchen', 'Wifi', 'Free parking on premises', 'TV', 'Washer', 'Air conditioning', 'Hair dryer']",2.0,1.0
1022458162773779592,Entire Home minutes from Camp North End and Uptown,14.0,23.0,19.0,17.0,21.0,18.0,13.0,18.0,12.0,8.0,,8.0,59,False,35.2434,-80.8382,True,"['Kitchen', 'Fast wifi – 340 Mbps', 'Dedicated workspace', 'Free parking on premises', 'TV', 'Washer', 'Free dryer – In unit', 'Air conditioning', 'Bathtub', 'Exterior security cameras on property']",3.0,2.0
1023147865388003631,New! Spacious Oasis 1BR Apt Downtown,31.0,29.0,30.0,28.0,30.0,30.0,31.0,27.0,13.0,13.0,,,77,False,,,,,1.0,1.0
1023211365413641468,Bohemian style Luxe Condo,,,,,,,,,,,,,79,False,35.24118,-80.81281,False,"['Kitchen', 'Wifi – 38 Mbps', 'Dedicated workspace', 'Free parking on premises', 'Shared outdoor pool - available seasonally, open specific hours', 'Pets allowed', 'TV', 'Elevator', 'EV charger', 'Washer']",1.0,1.0
1023211365413641468,Bohemian style Luxe Condo,,,,20.0,29.0,20.0,13.0,18.0,23.0,24.0,,6.0,43,False,35.24118,-80.81281,False,"['Kitchen', 'Wifi – 38 Mbps', 'Dedicated workspace', 'Free parking on premises', 'Shared outdoor pool - available seasonally, open specific hours', 'Pets allowed', 'TV', 'Elevator', 'EV charger', 'Washer']",1.0,1.0
1023346397599527314,Sunshine Bliss,6.0,6.0,13.0,10.0,20.0,18.0,10.0,7.0,11.0,18.0,,,74,False,,,,,3.0,2.0
1023970600989716375,Amazing Suite!~King Bed~Free Parking!~Southpark,,,,,,,,,,,4.0,22.0,70,False,35.15233,-80.83652,True,"['Kitchen', 'Wifi – 41 Mbps', 'Dedicated workspace', 'Free parking garage on premises', 'Shared outdoor pool - available all year, open specific hours', 'Pets allowed', '55 inch HDTV with Amazon Prime Video, Roku, Netflix, Hulu', 'Elevator', 'Free washer – In unit', 'Free dryer – In unit']",1.0,1.0
1023970600989716375,Amazing Suite!~King Bed~Free Parking!~Southpark,24.0,31.0,29.0,30.0,23.0,31.0,31.0,27.0,7.0,7.0,,7.0,90,False,35.15233,-80.83652,True,"['Kitchen', 'Wifi – 41 Mbps', 'Dedicated workspace', 'Free parking garage on premises', 'Shared outdoor pool - available all year, open specific hours', 'Pets allowed', '55 inch HDTV with Amazon Prime Video, Roku, Netflix, Hulu', 'Elevator', 'Free washer – In unit', 'Free dryer – In unit']",1.0,1.0
1024073955113362459,Birdsong Bungalow - Uptown Retreat - 6 Beds,17.0,12.0,18.0,15.0,22.0,21.0,18.0,22.0,22.0,17.0,,,79,False,35.2308,-80.8243,True,"['Courtyard view', 'Kitchen', 'Fast wifi – 260 Mbps', 'Dedicated workspace', 'Free driveway parking on premises – 2 spaces', 'Private hot tub - available all year, open specific hours', '65 inch HDTV with Amazon Prime Video, HBO Max, Hulu, Netflix, Disney+', 'Free washer – In unit', 'Free dryer – In unit', 'Exterior security cameras on property']",4.0,4.5
1024079856931465346,Relaxing Long term Casa La Obra,,,,,,,,,,,8.0,10.0,89,False,35.19575,-80.76455,True,"['Kitchen', 'Wifi', 'Dedicated workspace', 'Free parking on premises', 'TV', 'Washer', 'Free dryer', 'Air conditioning', 'Bathtub', 'Exterior security cameras on property']",4.0,3.0
1024079856931465346,Relaxing Long term Casa La Obra,0.0,0.0,0.0,0.0,0.0,6.0,13.0,6.0,13.0,5.0,28.0,17.0,73,False,35.19575,-80.76455,True,"['Kitchen', 'Wifi', 'Dedicated workspace', 'Free parking on premises', 'TV', 'Washer', 'Free dryer', 'Air conditioning', 'Bathtub', 'Exterior security cameras on property']",4.0,3.0
1024811,Hey Ya'll  ~  Free Parking | Pets Welcome,31.0,29.0,27.0,30.0,24.0,29.0,16.0,26.0,26.0,12.0,,,50,False,35.2229,-80.8129,True,"['City skyline view', 'Kitchen', 'Fast wifi – 61 Mbps', 'Dedicated workspace', 'Free residential garage on premises – 1 space', 'Pets allowed', '50 inch HDTV with Roku, standard cable', 'Elevator', 'Free washer – In unit', 'Free dryer – In unit']",1.0,1.0
1024951316685805103,"4 bdrm, pet friendly, firepit, 20 mins to uptown",,,,,,,,,,9.0,19.0,30.0,84,False,35.1054,-80.7187,True,"['Kitchen', 'Wifi', 'Dedicated workspace', 'Free parking on premises', 'Pets allowed', '65 inch HDTV with Roku', 'Washer', 'Free dryer – In unit', 'Air conditioning', 'Exterior security cameras on property']",4.0,2.5
1024951316685805103,"4 bdrm, pet friendly, firepit, 20 mins to uptown",15.0,18.0,26.0,22.0,20.0,16.0,18.0,14.0,14.0,13.0,,,45,False,35.1054,-80.7187,True,"['Kitchen', 'Wifi', 'Dedicated workspace', 'Free parking on premises', 'Pets allowed', '65 inch HDTV with Roku', 'Washer', 'Free dryer – In unit', 'Air conditioning', 'Exterior security cameras on property']",4.0,2.5
1024961002446776731,2B Modern living w Rooftop Skyline Views,,,,,,,,,,,31.0,0.0,80,False,,,,,2.0,2.5
1024961002446776731,2B Modern living w Rooftop Skyline Views,0.0,0.0,29.0,24.0,27.0,8.0,20.0,6.0,0.0,16.0,,,75,False,,,,,2.0,2.5
1025407266158847849,Cozy Home Near Downtown,,,,,,,,,,,,,49,False,35.30309,-80.84397,True,"['Kitchen', 'Wifi', 'Dedicated workspace', 'Free driveway parking on premises – 4 spaces', '50 inch HDTV with Apple TV, Netflix, Roku', 'Free washer – In unit', 'Free dryer – In unit', 'Central air conditioning', 'Bathtub', 'Exterior security cameras on property']",3.0,2.0
1025407266158847849,Cozy Home Near Downtown,,,,14.0,12.0,7.0,4.0,4.0,25.0,20.0,,,70,False,35.30309,-80.84397,True,"['Kitchen', 'Wifi', 'Dedicated workspace', 'Free driveway parking on premises – 4 spaces', '50 inch HDTV with Apple TV, Netflix, Roku', 'Free washer – In unit', 'Free dryer – In unit', 'Central air conditioning', 'Bathtub', 'Exterior security cameras on property']",3.0,2.0
1025579707714331890,—> *Home in Charlotte* <—,,,,,,,,,,,13.0,30.0,87,False,35.06563,-80.69913,True,"['Kitchen', 'Wifi', 'Dedicated workspace', 'Free parking on premises', 'Pets allowed', 'TV', 'Washer', 'Free dryer – In unit', 'Air conditioning', 'Carbon monoxide alarm']",3.0,2.0
1025579707714331890,—> *Home in Charlotte* <—,25.0,30.0,26.0,29.0,30.0,30.0,31.0,24.0,20.0,19.0,,,69,False,35.06563,-80.69913,True,"['Kitchen', 'Wifi', 'Dedicated workspace', 'Free parking on premises', 'Pets allowed', 'TV', 'Washer', 'Free dryer – In unit', 'Air conditioning', 'Carbon monoxide alarm']",3.0,2.0
1026061919246518563,"Short trip to Uptown & Noda, Beautiful 2 BR!",,,,,,,,,,,5.0,31.0,60,False,35.26012,-80.78284,False,"['Kitchen', 'Wifi', 'Dedicated workspace', 'Free parking on premises', 'TV', 'Free washer – In unit', 'Free dryer – In unit', 'Central air conditioning', 'Private patio or balcony', 'Exterior security cameras on property']",2.0,1.0
1026061919246518563,"Short trip to Uptown & Noda, Beautiful 2 BR!",29.0,30.0,30.0,0.0,30.0,30.0,31.0,17.0,0.0,11.0,,,73,False,35.26012,-80.78284,False,"['Kitchen', 'Wifi', 'Dedicated workspace', 'Free parking on premises', 'TV', 'Free washer – In unit', 'Free dryer – In unit', 'Central air conditioning', 'Private patio or balcony', 'Exterior security cameras on property']",2.0,1.0
1026080234862991408,New house next to airport! Matte black accents,,12.0,14.0,8.0,5.0,0.0,2.0,26.0,25.0,17.0,9.0,11.0,70,False,35.24215,-80.94701,True,"['Kitchen', 'Wifi', 'Free parking on premises', 'Pets allowed', 'TV', 'Washer', 'Free dryer', 'Air conditioning', 'Bathtub', 'Exterior security cameras on property']",4.0,2.0
1026941427012317730,Adorable 1BR Guesthouse in Noda | Parking,22.0,22.0,28.0,25.0,31.0,29.0,18.0,22.0,16.0,14.0,,12.0,48,False,35.23435,-80.81387,True,"['Wifi', 'Free street parking', 'TV', 'Air conditioning', 'Bathtub', 'Indoor fireplace', 'Hair dryer', 'Microwave', 'Long term stays allowed', 'Exterior security cameras on property']",1.0,1.0
1027004306842707961,Luxury Charlotte City Townhome W/Private Rooftop!,16.0,11.0,21.0,21.0,20.0,26.0,18.0,10.0,16.0,13.0,,,51,False,35.2279,-80.8239,True,"['City skyline view', 'Park view', 'Kitchen', 'Wifi', 'Free parking on premises', 'TV', 'Free washer – In unit', 'Free dryer – In unit', 'Central air conditioning', 'Exterior security cameras on property']",3.0,3.5
1027061734002923866,Charlotte Dream House: Game Room + Fire Pit,,,,,,,,,,,,20.0,81,False,35.08214,-80.86759,False,"['Kitchen', 'Wifi', 'Free driveway parking on premises – 4 spaces', 'Private outdoor pool - available seasonally, open 24 hours', 'Pets allowed', 'TV', 'Free washer – In unit', 'Free dryer – In unit', 'Central air conditioning', 'Exterior security cameras on property']",3.0,2.5
1027061734002923866,Family Dream House: Game Room + Fire Pit,26.0,23.0,17.0,12.0,27.0,17.0,24.0,15.0,8.0,4.0,,,60,False,35.08214,-80.86759,False,"['Kitchen', 'Wifi', 'Free driveway parking on premises – 4 spaces', 'Private outdoor pool - available seasonally, open 24 hours', 'Pets allowed', 'TV', 'Free washer – In unit', 'Free dryer – In unit', 'Central air conditioning', 'Exterior security cameras on property']",3.0,2.5
1027537248142894619,"Reluxme|South Park 2BR w/King Beds, Prem Amenities",,,,,,,,,,,6.0,24.0,74,False,35.15729,-80.7981,False,"['Kitchen', 'Wifi', 'Dedicated workspace', 'Free parking on premises', 'Shared pool', 'Shared hot tub', 'Shared sauna', 'Pets allowed', 'TV', 'Elevator']",2.0,2.0
1027537248142894619,"Reluxme|South Park 2BR w/King Beds, Prem Amenities",23.0,31.0,0.0,30.0,0.0,24.0,26.0,23.0,20.0,23.0,24.0,19.0,66,False,35.15729,-80.7981,False,"['Kitchen', 'Wifi', 'Dedicated workspace', 'Free parking on premises', 'Shared pool', 'Shared hot tub', 'Shared sauna', 'Pets allowed', 'TV', 'Elevator']",2.0,2.0
1028507405102319651,Cozy Condo In Charlotte,,,,,,,,,,,,,33,False,35.20347,-80.80752,True,"['Kitchen', 'Wifi', 'Dedicated workspace', 'Free residential garage on premises', 'TV', 'Washer', 'Dryer', 'Central air conditioning', 'Bathtub', 'Exterior security cameras on property']",2.0,1.0
1028507405102319651,Cozy Condo In Charlotte,21.0,30.0,0.0,0.0,12.0,0.0,0.0,28.0,16.0,30.0,0.0,0.0,72,False,35.20347,-80.80752,True,"['Kitchen', 'Wifi', 'Dedicated workspace', 'Free residential garage on premises', 'TV', 'Washer', 'Dryer', 'Central air conditioning', 'Bathtub', 'Exterior security cameras on property']",2.0,1.0
1028507405102319651,Cozy Condo In Charlotte,0.0,0.0,,,,,,,,,,,55,False,35.20347,-80.80752,True,"['Kitchen', 'Wifi', 'Dedicated workspace', 'Free residential garage on premises', 'TV', 'Washer', 'Dryer', 'Central air conditioning', 'Bathtub', 'Exterior security cameras on property']",2.0,1.0
1029820195838157234,Under the Sea - Eclectic Aquarium - Carriage House,,,13.0,31.0,29.0,29.0,30.0,31.0,29.0,20.0,26.0,19.0,84,False,35.22076,-80.82464,True,"['City skyline view', 'Kitchen', 'Wifi', 'Dedicated workspace', 'Free parking on premises', '42 inch HDTV', 'Free washer – In unit', 'Free dryer – In unit', 'Central air conditioning', 'Exterior security cameras on property']",1.0,1.0
1029820195838157234,Under the Sea - Eclectic Aquarium - Carriage House,15.0,2.0,,,,17.0,22.0,19.0,28.0,30.0,19.0,16.0,69,False,35.22076,-80.82464,True,"['City skyline view', 'Kitchen', 'Wifi', 'Dedicated workspace', 'Free parking on premises', '42 inch HDTV', 'Free washer – In unit', 'Free dryer – In unit', 'Central air conditioning', 'Exterior security cameras on property']",1.0,1.0
1029839903350432115,Uptown Charlotte Loft with Private Garage,12.0,21.0,,1.0,23.0,21.0,25.0,22.0,25.0,30.0,31.0,16.0,87,False,35.23448,-80.83879,True,"['Kitchen', 'Wifi', 'Dedicated workspace', 'Free parking on premises', 'Pets allowed', 'TV', 'Washer', 'Free dryer – In unit', 'Air conditioning', 'Samsung refrigerator']",1.0,1.0
1029932353643232229,Fully Remodeled 4B House,30.0,31.0,,,,,,,,,,,84,False,35.16817,-80.89651,False,"['Kitchen', 'Wifi', 'Dedicated workspace', 'Free parking on premises', 'Pets allowed', 'TV', 'Washer', 'Air conditioning', 'Exterior security cameras on property']",4.0,2.0
1029948980680130914,Cozy_ 3 BED House-Backyard-WiFi-Spacy,,,,20.0,28.0,26.0,26.0,27.0,26.0,18.0,23.0,17.0,63,False,35.1311,-80.8538,False,"['Garden view', 'Park view', 'Kitchen', 'Wifi', 'Dedicated workspace', 'Free parking on premises', 'Pets allowed', 'TV', 'Free washer – In unit', 'Exterior security cameras on property']",3.0,2.5
1029948980680130914,Cozy_ 3 BED House-Backyard-WiFi-Spacy,8.0,9.0,17.0,31.0,,,,,,,,,81,False,35.1311,-80.8538,False,"['Garden view', 'Park view', 'Kitchen', 'Wifi', 'Dedicated workspace', 'Free parking on premises', 'Pets allowed', 'TV', 'Free washer – In unit', 'Exterior security cameras on property']",3.0,2.5
1030000150495398962,Chic Home 9 min to Uptown w/Hot Tub & Private Yard,,,,,,15.0,21.0,28.0,27.0,31.0,29.0,23.0,85,False,35.2057,-80.901,True,"['Kitchen', 'Wifi', 'Dedicated workspace', 'Free parking on premises', 'Hot tub', 'Pets allowed', 'TV', 'Washer', 'Dryer', 'Exterior security cameras on property']",3.0,2.5
1030000150495398962,Chic Home 9 min to Uptown w/Hot Tub & Private Yard,28.0,14.0,9.0,13.0,27.0,9.0,,9.0,6.0,10.0,10.0,16.0,79,False,35.2057,-80.901,True,"['Kitchen', 'Wifi', 'Dedicated workspace', 'Free parking on premises', 'Hot tub', 'Pets allowed', 'TV', 'Washer', 'Dryer', 'Exterior security cameras on property']",3.0,2.5
1030423939207557812,Homey apartment in  heart Uptown,15.0,23.0,31.0,24.0,26.0,29.0,,,,,,,78,False,35.23256,-80.83579,True,"['City skyline view', 'Kitchen', 'Wifi', 'Dedicated workspace', 'Free parking on premises', 'Pool', 'TV', 'Elevator', 'Washer', 'Free dryer – In unit']",1.0,1.0
1030637963942332599,Stunning Charlotte Retreat ~ 2 Mi to City Center!,,,,,,,3.0,15.0,24.0,31.0,6.0,27.0,78,False,35.23559,-80.82442,False,"['Kitchen', 'Wifi', 'Free parking on premises', 'TV', 'Dryer', 'Air conditioning', 'Patio or balcony', 'Hair dryer', 'Refrigerator', 'Exterior security cameras on property']",2.0,1.0
1030637963942332599,Stunning Charlotte Retreat ~ 2 Mi to City Center!,27.0,9.0,0.0,0.0,0.0,4.0,,,,,,,71,False,35.23559,-80.82442,False,"['Kitchen', 'Wifi', 'Free parking on premises', 'TV', 'Dryer', 'Air conditioning', 'Patio or balcony', 'Hair dryer', 'Refrigerator', 'Exterior security cameras on property']",2.0,1.0
1031202930369373003,Bold Uptown Retreat - Hot Tub - 6 Beds,,,,,10.0,15.0,17.0,23.0,23.0,24.0,24.0,21.0,76,False,35.2561,-80.8224,True,"['Courtyard view', 'Kitchen', 'Fast wifi – 281 Mbps', 'Dedicated workspace', 'Free parking on premises', 'Private hot tub - available all year, open specific hours', 'Pets allowed', '65 inch HDTV', 'Free washer – In unit', 'Exterior security cameras on property']",4.0,2.5
1031202930369373003,Bold Uptown Retreat - Hot Tub - 6 Beds,16.0,19.0,11.0,16.0,15.0,13.0,,,28.0,27.0,26.0,26.0,90,False,35.2561,-80.8224,True,"['Courtyard view', 'Kitchen', 'Fast wifi – 281 Mbps', 'Dedicated workspace', 'Free parking on premises', 'Private hot tub - available all year, open specific hours', 'Pets allowed', '65 inch HDTV', 'Free washer – In unit', 'Exterior security cameras on property']",4.0,2.5
1032785298136648441,Uptown Oasis Breathtaking City Views: FREE Parking,27.0,26.0,13.0,25.0,20.0,15.0,,,,,,,69,False,,,,,3.0,2.0
1032799585411656636,Comfortable 3BD/3BA University area,,,,,,,14.0,22.0,2.0,9.0,6.0,13.0,64,False,35.25868,-80.73939,False,"['Kitchen', 'Wifi', 'Free parking on premises', 'TV', 'Air conditioning', 'Bathtub', 'Indoor fireplace: gas', 'Hair dryer', 'Refrigerator', 'Exterior security cameras on property']",3.0,3.0
1032799585411656636,Comfortable 3BD/3BA University area,17.0,20.0,10.0,3.0,5.0,3.0,,,,,,,64,False,35.25868,-80.73939,False,"['Kitchen', 'Wifi', 'Free parking on premises', 'TV', 'Air conditioning', 'Bathtub', 'Indoor fireplace: gas', 'Hair dryer', 'Refrigerator', 'Exterior security cameras on property']",3.0,3.0
1033247505541213820,Bancroft Bungalow - Hot Tub - Uptown Retreat,,,,,0.0,12.0,12.0,21.0,19.0,13.0,17.0,12.0,67,False,35.256,-80.8222,True,"['Kitchen', 'Fast wifi – 577 Mbps', 'Dedicated workspace', 'Free driveway parking on premises – 2 spaces', 'Private hot tub - available all year, open specific hours', 'Pets allowed', '65 inch HDTV with Netflix, Hulu, Amazon Prime Video, Disney+', 'Free washer – In unit', 'Free dryer – In unit', 'Exterior security cameras on property']",4.0,2.5
1033247505541213820,Bancroft Bungalow - Hot Tub - Uptown Retreat,19.0,18.0,10.0,20.0,18.0,12.0,,,,,,,73,False,35.256,-80.8222,True,"['Kitchen', 'Fast wifi – 577 Mbps', 'Dedicated workspace', 'Free driveway parking on premises – 2 spaces', 'Private hot tub - available all year, open specific hours', 'Pets allowed', '65 inch HDTV with Netflix, Hulu, Amazon Prime Video, Disney+', 'Free washer – In unit', 'Free dryer – In unit', 'Exterior security cameras on property']",4.0,2.5
1033448881797537670,Charming Mid-Century+Pet Friendly near Uptown/CLT,,,,,,,9.0,24.0,24.0,24.0,17.0,25.0,76,False,35.25446,-80.83649,True,"['City skyline view', 'Kitchen', 'Wifi', 'Dedicated workspace', 'Free parking on premises', 'Pets allowed', '65 inch HDTV with Amazon Prime Video, HBO Max, Netflix, Roku', 'Free washer – In unit', 'Free dryer – In unit', 'Exterior security cameras on property']",2.0,1.0
1033448881797537670,Charming Mid-Century+Pet Friendly near Uptown/CLT,16.0,18.0,24.0,12.0,8.0,5.0,,,,,,,81,False,35.25446,-80.83649,True,"['City skyline view', 'Kitchen', 'Wifi', 'Dedicated workspace', 'Free parking on premises', 'Pets allowed', '65 inch HDTV with Amazon Prime Video, HBO Max, Netflix, Roku', 'Free washer – In unit', 'Free dryer – In unit', 'Exterior security cameras on property']",2.0,1.0
1034389508722871132,Modern Stay in North Charlotte,,,,,,,,,,,20.0,12.0,88,False,35.28248,-80.82814,True,"['Kitchen', 'Wifi', 'Dedicated workspace', 'Free parking on premises', 'TV', 'Washing machine', 'Free dryer', 'Air conditioning', 'Exterior security cameras on property', 'Carbon monoxide alarm']",4.0,2.5
1034389508722871132,Modern Stay in North Charlotte,12.0,13.0,18.0,17.0,14.0,12.0,11.0,0.0,,,31.0,27.0,69,False,35.28248,-80.82814,True,"['Kitchen', 'Wifi', 'Dedicated workspace', 'Free parking on premises', 'TV', 'Washing machine', 'Free dryer', 'Air conditioning', 'Exterior security cameras on property', 'Carbon monoxide alarm']",4.0,2.5
1035332688546801972,Stylish Modern 3BR/3.5BH Townhouse in Charlotte,31.0,30.0,31.0,30.0,26.0,25.0,22.0,10.0,,7.0,21.0,25.0,93,False,35.24385,-80.79166,False,"['Kitchen', 'Wifi', 'Dedicated workspace', 'Free parking on premises', 'TV', 'Washing machine', 'Dryer', 'Air conditioning', 'Bath', 'Hair dryer']",3.0,3.5
1035525877500699541,"Style, Comfort, Dogs, Fenced Yard, No Clean Fee",22.0,28.0,25.0,27.0,16.0,28.0,26.0,17.0,,9.0,23.0,20.0,30,False,35.22638,-80.81914,True,"['Kitchen', 'Fast wifi – 489 Mbps', 'Free parking on premises', 'Pets allowed', 'TV', 'Free washer – In unit', 'Free dryer – In unit', 'Central air conditioning', 'Exterior security cameras on property', 'Carbon monoxide alarm']",2.0,1.0
1035548253833526328,"Carolina Blue | Stunning Views, Free Parking&WiFi",25.0,28.0,31.0,30.0,27.0,22.0,13.0,18.0,,11.0,21.0,25.0,81,False,35.23054,-80.84602,True,"['City skyline view', 'Kitchen', 'Wifi', 'Dedicated workspace', 'Free parking on premises', '50 inch HDTV with Roku', 'Elevator', 'Free washer – In unit', 'Free dryer – In unit', 'Exterior security cameras on property']",4.0,2.0
1035646328680313725,"Urban Retreat | Free Parking+WiFi, Walk to Stadium",26.0,25.0,24.0,29.0,23.0,16.0,18.0,25.0,,2.0,22.0,19.0,54,False,35.23052,-80.84459,True,"['City skyline view', 'Kitchen', 'Wifi', 'Dedicated workspace', 'Free parking on premises', '50 inch HDTV with Roku', 'Elevator', 'Free washer – In unit', 'Free dryer – In unit', 'Exterior security cameras on property']",4.0,2.0
1035753335580754094,3 Beds | Gym | Bank of America Stadium | Spectrum,28.0,26.0,25.0,28.0,19.0,26.0,19.0,19.0,,4.0,22.0,18.0,66,False,,,,,3.0,2.0
1035830496693574561,4 Beds | Gym | Bank of America Stadium | Spectrum,25.0,30.0,21.0,26.0,11.0,23.0,16.0,14.0,,0.0,24.0,27.0,70,False,,,,,4.0,2.0
1037182199150996304,3 Beds | Spectrum Center | Bank of America Stadium,26.0,23.0,27.0,29.0,19.0,22.0,19.0,22.0,,0.0,28.0,24.0,77,False,,,,,3.0,2.0
1037196311617810405,3 Beds | Spectrum Center | Bank of America Stadium,31.0,27.0,31.0,28.0,31.0,20.0,24.0,17.0,,0.0,20.0,25.0,82,False,,,,,3.0,2.0
1037205343579941188,3 Beds | Gym | Spectrum | Bank of America Stadium,31.0,30.0,22.0,27.0,31.0,25.0,15.0,16.0,,,,,71,False,,,,,3.0,2.0
1037772007933363559,"Relax, Calm, and Vibrant",4.0,13.0,16.0,21.0,26.0,21.0,8.0,8.0,,,,,78,False,,,,,1.0,0.0
1037859502636464284,Mt Holly Haven: 3 BR Home: Conveniently Located,,,,,,,,,8.0,31.0,24.0,25.0,66,False,35.29987,-81.01995,True,"['Kitchen', 'Wifi', 'Dedicated workspace', 'Free driveway parking on premises – 4 spaces', 'TV', 'Free washer – In unit', 'Free dryer – In unit', 'Air conditioning', 'Bathtub', 'Carbon monoxide alarm']",3.0,1.0
1037859502636464284,Mt Holly Haven: 3 BR Home: Conveniently Located,23.0,19.0,21.0,15.0,18.0,23.0,27.0,10.0,,,7.0,5.0,66,False,35.29987,-81.01995,True,"['Kitchen', 'Wifi', 'Dedicated workspace', 'Free driveway parking on premises – 4 spaces', 'TV', 'Free washer – In unit', 'Free dryer – In unit', 'Air conditioning', 'Bathtub', 'Carbon monoxide alarm']",3.0,1.0
1038021672063617269,Quick Stay at the Cove- Near Airport & Uptown,10.0,17.0,25.0,0.0,0.0,2.0,4.0,12.0,,,16.0,19.0,62,False,35.1839,-80.913,True,"['Kitchen', 'Wifi', 'Free parking on premises', 'Pets allowed', 'TV', 'Air conditioning', 'Bathtub', 'Whirlpool refrigerator', 'Microwave', 'Exterior security cameras on property']",1.0,1.0
1038336657581046732,CLT Gem Luxury 2 King Bed/2Full Bath 10min-Airport,21.0,11.0,26.0,23.0,20.0,23.0,30.0,14.0,,18.0,4.0,2.0,82,False,,,,,2.0,2.0
1038600240623627350,LUX Home | Stunning Outdoor Space + Pool Table!,4.0,16.0,22.0,24.0,26.0,28.0,25.0,18.0,,,,,52,False,35.23071,-80.82038,True,"['City skyline view', 'Kitchen', 'Wifi', 'Dedicated workspace', 'Free parking on premises', 'TV', 'Washer', 'Dryer', 'Air conditioning', 'Exterior security cameras on property']",4.0,4.0
1039016104140147488,Spacious 1-Level Home - Long Term Stay,,,,,,,,,12.0,0.0,24.0,0.0,58,False,,,,,4.0,2.0
1039016104140147488,Spacious One Level Home - Long Term Stay,2.0,15.0,23.0,18.0,28.0,17.0,12.0,21.0,,,8.0,12.0,77,False,,,,,4.0,2.0
1039823435570949083,Chic retreat in charlotte 3bed2b,17.0,17.0,18.0,26.0,20.0,21.0,15.0,9.0,,,,,75,False,,,,,3.0,2.0
1040187502595332328,Queen City Retreat @ Southpark,,,,,,,,,,4.0,11.0,22.0,75,False,35.1365,-80.8427,True,"['Kitchen', 'Wifi', 'Dedicated workspace', 'Free parking on premises', 'Pets allowed', '60 inch TV with Amazon Prime Video, Roku', 'Free washer – In unit', 'Free dryer – In unit', 'Central air conditioning', 'Exterior security cameras on property']",3.0,2.0
1040187502595332328,Queen City Retreat @ Southpark,0.0,19.0,16.0,17.0,27.0,9.0,19.0,19.0,8.0,3.0,,,54,False,35.1365,-80.8427,True,"['Kitchen', 'Wifi', 'Dedicated workspace', 'Free parking on premises', 'Pets allowed', '60 inch TV with Amazon Prime Video, Roku', 'Free washer – In unit', 'Free dryer – In unit', 'Central air conditioning', 'Exterior security cameras on property']",3.0,2.0
1040583173198225726,Centralized Family-Sized Home,,,,,,,,,,17.0,11.0,8.0,69,False,35.20220614263442,-80.89985204195555,False,"['Kitchen', 'Wifi', 'Dedicated workspace', 'Free parking on premises', 'Pets allowed', 'TV', 'Washer', 'Free dryer – In unit', 'Air conditioning', 'Exterior security cameras on property']",4.0,2.0
1040583173198225726,Centralized Family-Sized Home,6.0,4.0,0.0,0.0,0.0,2.0,20.0,0.0,0.0,0.0,,,48,False,35.20220614263442,-80.89985204195555,False,"['Kitchen', 'Wifi', 'Dedicated workspace', 'Free parking on premises', 'Pets allowed', 'TV', 'Washer', 'Free dryer – In unit', 'Air conditioning', 'Exterior security cameras on property']",4.0,2.0
1040612746903726331,Peace in Pineville,30.0,29.0,0.0,0.0,29.0,30.0,7.0,28.0,21.0,13.0,,,58,False,35.0868,-80.8956,False,"['Kitchen', 'Fast wifi – 219 Mbps', 'Free parking on premises', 'Pets allowed', '65 inch HDTV', 'Free washer – In unit', 'Free dryer – In unit', 'Air conditioning', 'Bathtub', 'Crib - available upon request']",2.0,1.0
1040737457909548745,Sunshine Retreat,8.0,12.0,14.0,13.0,20.0,20.0,8.0,7.0,13.0,20.0,,,69,False,,,,,2.0,2.0
1040825698916118964,2 Bedroom - Casa del Ward,10.0,13.0,18.0,21.0,20.0,22.0,15.0,18.0,13.0,13.0,,,82,False,,,,,2.0,2.0
1040859385252858144,PetFriendly Minimal Plant House,12.0,10.0,16.0,21.0,20.0,14.0,19.0,20.0,17.0,14.0,,,20,False,35.23742,-80.81404,True,"['City skyline view', 'Kitchen', 'Wifi', 'Dedicated workspace', 'Free parking on premises', 'Pets allowed', 'TV', 'Free washer – In unit', 'Free dryer – In unit', 'Central air conditioning']",2.0,1.0
1040888316246596521,5B Charlotte Close to Airport w Pool,25.0,22.0,25.0,30.0,26.0,29.0,24.0,31.0,28.0,19.0,,,95,False,35.14858,-80.98045,False,"['Kitchen', 'Wifi', 'Dedicated workspace', 'Free parking on premises', 'Pool', 'Pets allowed', 'TV', 'Washer', 'Free dryer – In unit', 'Exterior security cameras on property']",5.0,2.5
1041290865536976292,Luxury & Comfort ~ 5* Location Uptown Clt | Gym,31.0,27.0,29.0,29.0,26.0,27.0,12.0,23.0,1.0,3.0,,,46,False,35.21991469502348,-80.84534625821767,True,"['Kitchen', 'Wifi', 'Dedicated workspace', 'Free parking on premises', 'Shared outdoor pool - available seasonally, open specific hours', 'TV', 'Washer', 'Dryer', 'Air conditioning', 'Bathtub']",2.0,2.0
1041394081099403395,The Mayor House -Minutes from downtown/CLT Airport,28.0,27.0,29.0,25.0,30.0,30.0,31.0,31.0,30.0,31.0,,,75,False,35.2477,-80.89915,False,"['Kitchen', 'Wifi', 'Free parking on premises', 'TV', 'Washer', 'Dryer', 'Air conditioning', 'Backyard - Fully fenced', 'Indoor fireplace', 'Microwave']",2.0,1.0
1041559422550507393,"Sweet Sunset|Spacious, Cozy & Fun!",,,,,,,,,,,,27.0,89,False,35.3219,-80.89463,True,"['Kitchen', 'Wifi', 'Dedicated workspace', 'Free parking on premises', 'TV', 'Free washer – In building', 'Free dryer – In building', 'Air conditioning', 'Bathtub', 'Exterior security cameras on property']",3.0,2.5
1041559422550507393,"Sweet Sunset|Spacious, Cozy & Fun!",21.0,27.0,28.0,27.0,25.0,25.0,22.0,16.0,8.0,10.0,,,57,False,35.3219,-80.89463,True,"['Kitchen', 'Wifi', 'Dedicated workspace', 'Free parking on premises', 'TV', 'Free washer – In building', 'Free dryer – In building', 'Air conditioning', 'Bathtub', 'Exterior security cameras on property']",3.0,2.5
1041990610173821380,Perfectly Purple Bungalow-Walkable Plaza Midwood,,,,,,,,,,,,19.0,61,False,35.22178,-80.82348,True,"['City skyline view', 'Kitchen', 'Wifi', 'Dedicated workspace', 'Free parking on premises', '50 inch TV', 'Free washer – In unit', 'Free dryer – In unit', 'Central air conditioning', 'Exterior security cameras on property']",2.0,1.5
1041990610173821380,Perfectly Purple Bungalow-Walkable Plaza Midwood,22.0,24.0,27.0,19.0,26.0,26.0,23.0,16.0,12.0,12.0,,,53,False,35.22178,-80.82348,True,"['City skyline view', 'Kitchen', 'Wifi', 'Dedicated workspace', 'Free parking on premises', '50 inch TV', 'Free washer – In unit', 'Free dryer – In unit', 'Central air conditioning', 'Exterior security cameras on property']",2.0,1.5
1042056164140465360,Southern Charm-City Getaway-17 min to BOA Stadium,12.0,19.0,9.0,20.0,13.0,16.0,5.0,7.0,6.0,5.0,,,78,False,35.18049,-80.95472,True,"['Kitchen', 'Wifi', 'Dedicated workspace', 'Free parking on premises', 'Private hot tub', '65 inch HDTV with standard cable', 'Free washer – In unit', 'Free dryer – In unit', 'Central air conditioning', 'Exterior security cameras on property']",4.0,3.0
1042236171362963331,Private studio.,,,,,,,,,,,,22.0,82,False,35.28957,-80.72209,False,"['Kitchen', 'Wifi', 'Free parking on premises', '40 inch HDTV with Roku', 'Air conditioning', 'Indoor fireplace', 'Hair dryer', 'Microwave', 'Carbon monoxide alarm', 'Smoke alarm']",1.0,1.0
1042236171362963331,Private studio.,17.0,25.0,21.0,24.0,25.0,17.0,20.0,19.0,18.0,20.0,,,54,False,35.28957,-80.72209,False,"['Kitchen', 'Wifi', 'Free parking on premises', '40 inch HDTV with Roku', 'Air conditioning', 'Indoor fireplace', 'Hair dryer', 'Microwave', 'Carbon monoxide alarm', 'Smoke alarm']",1.0,1.0
1042990304914840183,Your Cozy and Spacious Ranch,,,,,,,,,,,,,52,False,35.15903,-80.77129,True,"['Kitchen', 'Wifi', 'Dedicated workspace', 'Free parking on premises', 'HDTV with Roku', 'Free washer – In unit', 'Free dryer – In unit', 'Central air conditioning', 'Private patio or balcony', 'Exterior security cameras on property']",3.0,2.0
1042990304914840183,Your Cozy and Spacious Ranch,,8.0,17.0,16.0,18.0,16.0,26.0,7.0,24.0,9.0,15.0,8.0,84,False,35.15903,-80.77129,True,"['Kitchen', 'Wifi', 'Dedicated workspace', 'Free parking on premises', 'HDTV with Roku', 'Free washer – In unit', 'Free dryer – In unit', 'Central air conditioning', 'Private patio or balcony', 'Exterior security cameras on property']",3.0,2.0
1043042872767545565,Cozy Condominium,,,,,,,,,,,,,50,False,35.19893,-80.75978,False,"['Kitchen', 'Wifi', 'Dedicated workspace', 'Free parking on premises', 'TV', 'Free washer – In unit', 'Free dryer – In unit', 'Air conditioning', 'Bathtub', 'Private patio or balcony']",2.0,2.0
1043042872767545565,Cozy Condominium,,30.0,22.0,27.0,0.0,28.0,16.0,0.0,20.0,1.0,9.0,0.0,75,False,35.19893,-80.75978,False,"['Kitchen', 'Wifi', 'Dedicated workspace', 'Free parking on premises', 'TV', 'Free washer – In unit', 'Free dryer – In unit', 'Air conditioning', 'Bathtub', 'Private patio or balcony']",2.0,2.0
1043708308258218590,Your Home Away From Home!,,,,,,,,,,,,,51,False,35.2808,-80.7702,True,"['Kitchen', 'Wifi', 'Free driveway parking on premises – 2 spaces', '48 inch HDTV with premium cable', 'Washer', 'Free dryer – In unit', 'Central air conditioning', 'Bathtub', 'Private backyard – Not fully fenced', 'Exterior security cameras on property']",2.0,1.5
1043708308258218590,Your Home Away From Home!,,23.0,24.0,30.0,24.0,28.0,29.0,22.0,24.0,13.0,15.0,12.0,73,False,35.2808,-80.7702,True,"['Kitchen', 'Wifi', 'Free driveway parking on premises – 2 spaces', '48 inch HDTV with premium cable', 'Washer', 'Free dryer – In unit', 'Central air conditioning', 'Bathtub', 'Private backyard – Not fully fenced', 'Exterior security cameras on property']",2.0,1.5
1044101506405275760,Classy Uptown Darling,,,10.0,13.0,15.0,18.0,16.0,18.0,16.0,17.0,13.0,22.0,76,False,35.2308,-80.8455,True,"['City skyline view', 'Kitchen', 'Wifi', 'Dedicated workspace', 'Free residential garage on premises – 1 space', '70 inch HDTV with Amazon Prime Video, Netflix, Hulu', 'Elevator', 'Free washer – In unit', 'Free dryer – In unit', 'Exterior security cameras on property']",4.0,2.0
1044249438073489794,| Summer Daze | King Suite w/ Hot Tub & Dip Pool,,,,,,,,,,,,12.0,76,False,,,,,3.0,3.0
1044249438073489794,| Summer Daze | King Suite w/ Hot Tub & Dip Pool,12.0,15.0,25.0,22.0,18.0,16.0,26.0,7.0,22.0,22.0,5.0,0.0,70,False,,,,,3.0,3.0
1044435962138475840,Glam House w/ King Bed + Hot Tub,,,8.0,15.0,24.0,20.0,30.0,15.0,15.0,18.0,14.0,14.0,45,False,35.15811,-80.92906,False,"['Kitchen', 'Wifi', 'Dedicated workspace', 'Free parking on premises', 'Private hot tub', 'Pets allowed', 'TV', 'Free washer – In unit', 'Free dryer – In unit', 'Exterior security cameras on property']",3.0,2.0
1045106119508022041,Cozy home in a desired location,,,,,,,,,,,,,79,False,35.0799,-80.8705,True,"['Kitchen', 'Wifi', 'Dedicated workspace', 'Free parking on premises', 'Pets allowed', 'TV', 'Free washer – In unit', 'Air conditioning', 'Indoor fireplace', 'Exterior security cameras on property']",2.0,2.5
1045106119508022041,Cozy home in a desired location,,3.0,4.0,24.0,0.0,0.0,0.0,17.0,5.0,13.0,25.0,18.0,76,False,35.0799,-80.8705,True,"['Kitchen', 'Wifi', 'Dedicated workspace', 'Free parking on premises', 'Pets allowed', 'TV', 'Free washer – In unit', 'Air conditioning', 'Indoor fireplace', 'Exterior security cameras on property']",2.0,2.5
1046315066272597310,Charlotte 3-bdrm house by Airport/White Waterpark,,,6.0,8.0,16.0,16.0,17.0,19.0,16.0,23.0,15.0,19.0,80,False,35.2522,-80.94845,False,"['Kitchen', 'Wifi', 'Free parking on premises', 'TV', 'Washer', 'Dryer – In building', 'Air conditioning', 'Bathtub', 'Hair dryer', 'Exterior security cameras on property']",3.0,2.0
1047309112943514770,Magical_3Bdrm Home w/ KingBed+Wi-Fi+WD+PoolTable,,,22.0,28.0,28.0,28.0,20.0,24.0,15.0,22.0,13.0,7.0,83,False,,,,,3.0,2.5
1047906220581518562,3BR/3.5bath Uptown Aloft house.,,,,,,,,,,,,,88,False,35.232,-80.86716,False,"['City skyline view', 'Kitchen', 'Wifi', 'Free parking on premises', 'TV', 'Washer', 'Free dryer – In unit', 'Central air conditioning', 'Bathtub', 'Hair dryer']",3.0,3.5
1047906220581518562,3BR/3.5bath Uptown Aloft house.,,18.0,19.0,26.0,20.0,18.0,23.0,12.0,14.0,11.0,12.0,9.0,83,False,35.232,-80.86716,False,"['City skyline view', 'Kitchen', 'Wifi', 'Free parking on premises', 'TV', 'Washer', 'Free dryer – In unit', 'Central air conditioning', 'Bathtub', 'Hair dryer']",3.0,3.5
1048537492391082559,Cozy Comfortable 3bd 2bath + pool Charlotte Home,,,31.0,29.0,31.0,29.0,31.0,30.0,23.0,27.0,16.0,13.0,72,False,35.10457,-80.96778,True,"['Kitchen', 'Wifi', 'Free parking on premises', 'Shared outdoor pool - available seasonally, open specific hours', 'Pets allowed', 'TV', 'Washer', 'Free dryer – In unit', 'Air conditioning', 'Exterior security cameras on property']",3.0,2.0
1048604077562064996,CharLit Stays,,,10.0,11.0,18.0,21.0,30.0,29.0,22.0,23.0,14.0,20.0,89,False,,,,,3.0,2.0
1048682200162969473,Groups°Full Kitchen°Garage°Parking°Smart TV's°W/D,,,,,,,,,,,,,56,False,35.30468,-80.80107,True,"['Kitchen', 'Wifi', 'Dedicated workspace', 'Free parking on premises', 'Pets allowed', '55 inch HDTV with Amazon Prime Video, Apple TV, Chromecast, Disney+, Fire TV, HBO Max, Hulu, Netflix', 'Free washer – In unit', 'Free dryer – In unit', 'Central air conditioning', 'Bathtub']",3.0,3.5
1048682200162969473,Groups°Full Kitchen°Garage°Parking°Smart TV's°W/D,,7.0,0.0,0.0,12.0,19.0,24.0,12.0,24.0,3.0,4.0,0.0,73,False,35.30468,-80.80107,True,"['Kitchen', 'Wifi', 'Dedicated workspace', 'Free parking on premises', 'Pets allowed', '55 inch HDTV with Amazon Prime Video, Apple TV, Chromecast, Disney+, Fire TV, HBO Max, Hulu, Netflix', 'Free washer – In unit', 'Free dryer – In unit', 'Central air conditioning', 'Bathtub']",3.0,3.5
1049478727006359920,Studio: Duplex,,,,,,,,,,,,,92,False,35.21974,-80.86306,True,"['Wifi', 'Dedicated workspace', 'Free parking on premises', 'Pets allowed', 'TV', 'Air conditioning', 'Fire pit', 'Exterior security cameras on property']",1.0,1.0
1049478727006359920,Studio: Duplex,,6.0,6.0,12.0,4.0,25.0,0.0,21.0,17.0,21.0,12.0,2.0,96,False,35.21974,-80.86306,True,"['Wifi', 'Dedicated workspace', 'Free parking on premises', 'Pets allowed', 'TV', 'Air conditioning', 'Fire pit', 'Exterior security cameras on property']",1.0,1.0
1050160443961357772,Save $ this Weekend+Fire Pit+Pets Welcome,,,3.0,21.0,22.0,19.0,17.0,7.0,19.0,30.0,0.0,0.0,46,False,,,,,3.0,2.0
1050396679338472632,Upscale  2  Bed Suite—In Waverly Charlotte!,,,,,,,,,,,,,67,False,35.05323,-80.76779,False,"['Kitchen', 'Wifi', 'Dedicated workspace', 'Free parking on premises', 'Shared outdoor pool - available seasonally, open specific hours', 'Pets allowed', 'TV', 'Washer', 'Air conditioning', 'Crib']",1.0,1.0
1050396679338472632,Upscale  2  Bed Suite—In Waverly Charlotte!,,30.0,28.0,27.0,28.0,31.0,29.0,14.0,13.0,24.0,4.0,10.0,70,False,35.05323,-80.76779,False,"['Kitchen', 'Wifi', 'Dedicated workspace', 'Free parking on premises', 'Shared outdoor pool - available seasonally, open specific hours', 'Pets allowed', 'TV', 'Washer', 'Air conditioning', 'Crib']",1.0,1.0
1050634921721594788,Uptown Charlotte Style,,,11.0,11.0,15.0,14.0,19.0,17.0,16.0,17.0,18.0,30.0,60,False,35.22992,-80.84595,True,"['Kitchen', 'Wifi', 'Dedicated workspace', 'Free parking garage on premises – 1 space', '65 inch TV with Amazon Prime Video', 'Elevator', 'Washer', 'Dryer', 'Central air conditioning', 'Exterior security cameras on property']",4.0,2.0
1050642639231879024,QC Style & Comfort,,,5.0,12.0,14.0,15.0,14.0,30.0,31.0,19.0,15.0,20.0,73,False,35.23122,-80.84646,True,"['Courtyard view', 'Kitchen', 'Wifi', 'Dedicated workspace', 'Free parking on premises – 1 space', 'TV', 'Washing machine', 'Free dryer – In unit', 'Air conditioning', 'Exterior security cameras on property']",4.0,2.0
1051428445848950159,Barsala | Modern 3BD in the University City area,,,,,,,,,,,,,75,False,35.30745,-80.72406,False,"['Kitchen', 'Wifi', 'Free parking on premises – 2 spaces', 'Pets allowed', '50 inch HDTV with Roku', 'Free washer – In unit', 'Dryer', 'Air conditioning', 'Bathtub', 'Hair dryer']",3.0,2.0
1051428445848950159,Barsala | Modern 3BD in the University City area,,0.0,28.0,26.0,24.0,1.0,0.0,0.0,0.0,19.0,12.0,10.0,83,False,35.30745,-80.72406,False,"['Kitchen', 'Wifi', 'Free parking on premises – 2 spaces', 'Pets allowed', '50 inch HDTV with Roku', 'Free washer – In unit', 'Dryer', 'Air conditioning', 'Bathtub', 'Hair dryer']",3.0,2.0
1051661529968009528,The Bohemian urban condo,,,20.0,28.0,24.0,23.0,29.0,0.0,0.0,27.0,0.0,0.0,61,False,35.24182,-80.81239,False,"['Kitchen', 'Fast wifi – 75 Mbps', 'Dedicated workspace', 'Free residential garage on premises – 1 space', 'Shared outdoor pool – available seasonally, open specific hours', 'Pets allowed', 'HDTV with Apple TV, Roku, Fire TV, DVD player', 'Lift', 'EV charger', 'Free washer – In unit']",1.0,1.0
1051699860352457426,Uptown Luxe | King Suite w/ Pool & Hot Tub,,,8.0,15.0,19.0,19.0,19.0,24.0,27.0,23.0,12.0,10.0,54,False,,,,,,
1051781933708776981,Upscale  2  Bed Suite—In Waverly Charlotte!,,,,,,,,,,,,,80,False,35.05641,-80.76768,False,"['Kitchen', 'Wifi', 'Dedicated workspace', 'Free parking on premises', 'Shared outdoor pool - available seasonally, open specific hours', 'Pets allowed', 'TV', 'Washer', 'Air conditioning', 'Crib']",1.0,1.0
1051781933708776981,Upscale  2  Bed Suite—In Waverly Charlotte!,,31.0,29.0,30.0,30.0,28.0,15.0,0.0,29.0,13.0,3.0,10.0,46,False,35.05641,-80.76768,False,"['Kitchen', 'Wifi', 'Dedicated workspace', 'Free parking on premises', 'Shared outdoor pool - available seasonally, open specific hours', 'Pets allowed', 'TV', 'Washer', 'Air conditioning', 'Crib']",1.0,1.0
1052253248456278251,Charming Charlotte Townhome: 6 Mi to Downtown!,,,7.0,29.0,31.0,30.0,31.0,0.0,0.0,25.0,17.0,3.0,61,False,35.2681,-80.77322,False,"['Kitchen', 'Wifi', 'Dedicated workspace', 'Free parking on premises', 'TV', 'Washer', 'Dryer', 'Air conditioning', 'Bathtub', 'Backyard']",3.0,2.5
1052376944209914308,Charming Retreat: Cozy & Stylish Home,,,0.0,0.0,0.0,0.0,0.0,0.0,0.0,27.0,16.0,3.0,89,False,35.253,-80.6907,False,"['City skyline view', 'Kitchen', 'Wifi', 'Dedicated workspace', 'Free parking on premises – 4 spaces', 'TV', 'EV charger - level 2', 'Free washer – In unit', 'Free dryer – In unit', 'Exterior security cameras on property']",4.0,2.5
1054604074780389924,Uptown Luxury Suite Near It All,,,,,,,,,,,,,43,False,,,,,2.0,2.0
1054604074780389924,Uptown Luxury Suite Near It All,,0.0,11.0,8.0,23.0,24.0,26.0,18.0,13.0,29.0,0.0,0.0,65,False,,,,,2.0,2.0
1055392853932618591,"Charlotte Downtown, West End, Airport & JCSU",,,,,,,,,,,,,72,False,35.2521,-80.8447,True,"['Kitchen', 'Wifi', 'Dedicated workspace', 'Free parking on premises', 'TV', 'Washer', 'Dryer', 'Air conditioning', 'Bathtub', 'Exterior security cameras on property']",3.0,2.0
1055392853932618591,"Charlotte Downtown, West End, Airport & JCSU",,13.0,14.0,12.0,12.0,10.0,6.0,7.0,11.0,4.0,4.0,2.0,78,False,35.2521,-80.8447,True,"['Kitchen', 'Wifi', 'Dedicated workspace', 'Free parking on premises', 'TV', 'Washer', 'Dryer', 'Air conditioning', 'Bathtub', 'Exterior security cameras on property']",3.0,2.0
1055760850554542571,"Entire Home in Charlotte, NC",,,7.0,12.0,22.0,17.0,25.0,25.0,19.0,25.0,15.0,6.0,62,False,,,,,3.0,2.5
1056002679038825224,Southpark 3BD Home3 miles to SouthEnd/5 to Uptown,,,,,,,,,,,,,55,False,35.16724,-80.85429,True,"['Kitchen', 'Wifi', 'Free parking on premises', 'Pets allowed', 'TV', 'Washer', 'Dryer', 'Air conditioning', 'Bathtub', 'Exterior security cameras on property']",3.0,2.0
1056002679038825224,Southpark 3BD Home3 miles to SouthEnd/5 to Uptown,,6.0,17.0,19.0,19.0,23.0,23.0,25.0,31.0,21.0,15.0,16.0,46,False,35.16724,-80.85429,True,"['Kitchen', 'Wifi', 'Free parking on premises', 'Pets allowed', 'TV', 'Washer', 'Dryer', 'Air conditioning', 'Bathtub', 'Exterior security cameras on property']",3.0,2.0
1056383310103762831,Modern Private Charlotte Retreat Near Downtown!,,,,,,,,,,,,,94,False,35.18315,-80.74533,False,"['Kitchen', 'Wifi', 'Free driveway parking on premises – 6 spaces', 'TV', 'Washing machine', 'Free dryer', 'Central air conditioning', 'Bath', 'Patio or balcony', 'Exterior security cameras on property']",3.0,2.0
1056383310103762831,Modern Private Charlotte Retreat Near Downtown!,,4.0,21.0,29.0,24.0,24.0,27.0,12.0,26.0,29.0,14.0,28.0,70,False,35.18315,-80.74533,False,"['Kitchen', 'Wifi', 'Free driveway parking on premises – 6 spaces', 'TV', 'Washing machine', 'Free dryer', 'Central air conditioning', 'Bath', 'Patio or balcony', 'Exterior security cameras on property']",3.0,2.0
1056383310103762831,Modern Private Charlotte Retreat Near Downtown!,27.0,1.0,,,25.0,29.0,29.0,0.0,26.0,30.0,14.0,4.0,63,False,35.18315,-80.74533,False,"['Kitchen', 'Wifi', 'Free driveway parking on premises – 6 spaces', 'TV', 'Washing machine', 'Free dryer', 'Central air conditioning', 'Bath', 'Patio or balcony', 'Exterior security cameras on property']",3.0,2.0
1057196665643381158,"North Carolina Abode w/ Fire Pit, Near Theme Parks",0.0,0.0,,,11.0,14.0,23.0,19.0,25.0,30.0,21.0,19.0,75,False,35.26498,-80.80253,False,"['Kitchen', 'Wifi', 'Free parking on premises', 'TV', 'Dryer', 'Air conditioning', 'Bathtub', 'Pack ’n play/Travel crib', 'Hair dryer', 'Exterior security cameras on property']",3.0,2.0
1057352920150323374,Downtown Gem | Exceptional Comfort & Convenience,16.0,17.0,,,,,,,,,,,68,False,35.24633,-80.85771,True,"['Park view', 'Garden view', 'Kitchen', 'Wifi', 'Dedicated workspace', 'Free driveway parking on premises – 4 spaces', 'Pets allowed', '70 inch HDTV', 'Washer', 'Exterior security cameras on property']",4.0,2.0
1057966802136586602,"Madison Park Gem: Near Downtown, Airport & Mall",,,,3.0,29.0,31.0,30.0,31.0,30.0,23.0,31.0,25.0,62,False,35.1633,-80.8523,True,"['Kitchen', 'Wifi', 'Dedicated workspace', 'Free parking on premises', 'TV', 'Washing machine', 'Free dryer – In unit', 'Air conditioning', 'Bath', 'Exterior security cameras on property']",3.0,1.0
1057966802136586602,"Madison Park Gem: Near Downtown, Airport & Mall",18.0,22.0,27.0,31.0,,,0.0,14.0,12.0,15.0,20.0,30.0,89,False,35.1633,-80.8523,True,"['Kitchen', 'Wifi', 'Dedicated workspace', 'Free parking on premises', 'TV', 'Washing machine', 'Free dryer – In unit', 'Air conditioning', 'Bath', 'Exterior security cameras on property']",3.0,1.0
1058094087462055325,Luxury Uptown Condo*Free Parking*Pets Welcome,0.0,19.0,14.0,16.0,,,,,,,,,60,False,35.2308,-80.8455,False,"['Kitchen', 'Wifi', 'Dedicated workspace', 'Free parking on premises', 'Pets allowed', 'TV', 'Elevator', 'Washer', 'Free dryer – In unit', 'Exterior security cameras on property']",3.0,2.0
1058177188492896133,Cozy Apartment with WiFi,,,,,,15.0,9.0,25.0,21.0,24.0,21.0,18.0,55,False,35.22359,-80.83358,True,"['Courtyard view', 'Kitchen', 'Wifi', 'Dedicated workspace', 'Free parking on premises', 'Pool', 'TV', 'Elevator', 'Washer', 'Air conditioning']",2.0,2.0
1058177188492896133,Cozy Apartment with WiFi,18.0,11.0,14.0,20.0,,,4.0,10.0,11.0,29.0,21.0,18.0,62,False,35.22359,-80.83358,True,"['Courtyard view', 'Kitchen', 'Wifi', 'Dedicated workspace', 'Free parking on premises', 'Pool', 'TV', 'Elevator', 'Washer', 'Air conditioning']",2.0,2.0
1058945377468615241,"Plaza Midwood-4 beds/2 bath Modern, Private Home",13.0,24.0,21.0,19.0,,,,8.0,24.0,19.0,30.0,26.0,67,False,35.22553,-80.77517,True,"['Kitchen', 'Wifi', 'Dedicated workspace', 'Free parking on premises', 'Pets allowed', 'TV', 'Washer', 'Air conditioning', 'Bathtub', 'Exterior security cameras on property']",3.0,2.0
1059490277664658964,"3 BR 3.5 Ba Home w/ Rooftop Patio, Close to Uptown",17.0,19.0,14.0,10.0,,,22.0,23.0,31.0,30.0,30.0,30.0,54,False,35.2276,-80.8238,True,"['City skyline view', 'Kitchen', 'Wifi', 'Free parking on premises', 'TV', 'Washer', 'Dryer', 'Air conditioning', 'Bathtub', 'Exterior security cameras on property']",3.0,3.5
1059764104218965585,Luxury High Rise with stunning city view,26.0,31.0,29.0,26.0,,,,,,,,,64,False,35.23296,-80.83697,False,"['Kitchen', 'Wifi', 'Dedicated workspace', 'Free parking on premises', 'Shared outdoor pool - available all year, heated, rooftop', 'Pets allowed', '75 inch HDTV with Amazon Prime Video, Apple TV, Chromecast, Disney+, HBO Max, Hulu, Netflix, premium cable', 'Free washer – In unit', 'Air conditioning', 'Indoor fireplace']",1.0,1.0
1060261417019275059,Cozy Townhome | Hot Tub | Pets OK| Sleeps 8,,,,,,14.0,18.0,16.0,16.0,21.0,22.0,13.0,63,False,35.24476,-80.88289,True,"['Kitchen', 'Wifi', 'Free driveway parking on premises – 4 spaces', 'Private hot tub', 'Pets allowed', 'HDTV with Roku', 'Free washer – In unit', 'Free dryer – In unit', 'Central air conditioning', 'Exterior security cameras on property']",3.0,2.5
1060261417019275059,Cozy Townhome | Hot Tub | Pets OK| Sleeps 8,24.0,17.0,14.0,9.0,21.0,14.0,,,,,,,66,False,35.24476,-80.88289,True,"['Kitchen', 'Wifi', 'Free driveway parking on premises – 4 spaces', 'Private hot tub', 'Pets allowed', 'HDTV with Roku', 'Free washer – In unit', 'Free dryer – In unit', 'Central air conditioning', 'Exterior security cameras on property']",3.0,2.5
1060475576240919359,"Cozy, accessible, clean",,,,,,,,13.0,24.0,27.0,26.0,22.0,57,False,35.33552,-80.85506,True,"['Pool view', 'Kitchen', 'Wifi', 'Free parking on premises', 'TV', 'Washing machine', 'Dryer – In unit', 'Air conditioning', 'Bath', 'Hair dryer']",1.0,1.0
1060475576240919359,"Cozy, accessible, clean",29.0,14.0,24.0,15.0,13.0,4.0,,,17.0,17.0,28.0,24.0,81,False,35.33552,-80.85506,True,"['Pool view', 'Kitchen', 'Wifi', 'Free parking on premises', 'TV', 'Washing machine', 'Dryer – In unit', 'Air conditioning', 'Bath', 'Hair dryer']",1.0,1.0
1060879023274757686,Queen City view,25.0,28.0,23.0,28.0,18.0,19.0,,,,,,,55,False,35.27511,-80.71088,True,"['Kitchen', 'Wifi', 'Free parking on premises', 'Pool', 'TV', 'Washer', 'Air conditioning', 'Indoor fireplace', 'Fire pit', 'Exterior security cameras on property']",3.0,2.5
1060972525047019592,Uptown KING Bed Suite!~Free Parking~Gym~Pool,,,,,,,,20.0,17.0,23.0,15.0,24.0,84,False,35.23373,-80.86188,True,"['City skyline view', 'Kitchen', 'Fast wifi – 355 Mbps', 'Dedicated workspace', 'Free parking on premises – 1 space', 'Shared outdoor pool - available all year, saltwater', 'Pets allowed', '50 inch HDTV with Roku, Amazon Prime Video, Netflix, Hulu, Apple TV', 'Exterior security cameras on property', 'Carbon monoxide alarm']",1.0,1.0
1060972525047019592,Uptown KING Bed Suite!~Free Parking~Gym~Pool,10.0,3.0,27.0,22.0,13.0,3.0,,,,,,,71,False,35.23373,-80.86188,True,"['City skyline view', 'Kitchen', 'Fast wifi – 355 Mbps', 'Dedicated workspace', 'Free parking on premises – 1 space', 'Shared outdoor pool - available all year, saltwater', 'Pets allowed', '50 inch HDTV with Roku, Amazon Prime Video, Netflix, Hulu, Apple TV', 'Exterior security cameras on property', 'Carbon monoxide alarm']",1.0,1.0
1061038638516402817,Cozy Tiny Home 5 min from uptown,,,,,,22.0,12.0,29.0,23.0,23.0,7.0,3.0,82,False,35.23091,-80.90017,False,"['Wifi', 'Dedicated workspace', 'Free parking on premises', 'Pets allowed', 'TV', 'Air conditioning', 'Private backyard – Fully fenced', 'Long term stays allowed', 'Exterior security cameras on property', 'Carbon monoxide alarm']",1.0,1.0
1061038638516402817,Cozy Tiny Home 5 min from uptown,30.0,24.0,31.0,24.0,9.0,0.0,,,,,,,67,False,35.23091,-80.90017,False,"['Wifi', 'Dedicated workspace', 'Free parking on premises', 'Pets allowed', 'TV', 'Air conditioning', 'Private backyard – Fully fenced', 'Long term stays allowed', 'Exterior security cameras on property', 'Carbon monoxide alarm']",1.0,1.0
1061643101959043333,Large 4Br/3Ba| Large BackYard |Close to Uptown,,,,,,,,8.0,4.0,22.0,26.0,29.0,34,False,35.2734,-80.778,False,"['Kitchen', 'Wifi', 'Dedicated workspace', 'Free parking garage on premises', 'TV', 'Washer', 'Free dryer – In unit', 'Air conditioning', 'Bathtub', 'Exterior security cameras on property']",4.0,3.0
1061643101959043333,Large 4Br/3Ba| Large BackYard |Close to Uptown,28.0,30.0,21.0,21.0,21.0,6.0,,,,,,,80,False,35.2734,-80.778,False,"['Kitchen', 'Wifi', 'Dedicated workspace', 'Free parking garage on premises', 'TV', 'Washer', 'Free dryer – In unit', 'Air conditioning', 'Bathtub', 'Exterior security cameras on property']",4.0,3.0
1061643202786196190,Large Modern Home| King Beds| Near DWTN| Patio,,,,,,2.0,0.0,22.0,15.0,26.0,15.0,13.0,45,False,35.26306,-80.8625,False,"['Kitchen', 'Wifi', 'Dedicated workspace', 'Free parking on premises', 'TV', 'Washer', 'Free dryer – In unit', 'Air conditioning', 'Bathtub', 'Exterior security cameras on property']",4.0,2.0
1061643202786196190,Large Modern Home| King Beds| Near DWTN| Patio,24.0,25.0,19.0,5.0,6.0,0.0,,,,19.0,24.0,22.0,80,False,35.26306,-80.8625,False,"['Kitchen', 'Wifi', 'Dedicated workspace', 'Free parking on premises', 'TV', 'Washer', 'Free dryer – In unit', 'Air conditioning', 'Bathtub', 'Exterior security cameras on property']",4.0,2.0
1061678190142872512,NoDa Tree House - Rooftop Terrace!,20.0,22.0,26.0,26.0,22.0,24.0,,,,,,,64,False,35.2444,-80.8011,True,"['Kitchen', 'Wifi', 'Dedicated workspace', 'Free parking on premises', 'Hot tub', 'Pets allowed', 'TV', 'Washer', 'Free dryer – In unit', 'Exterior security cameras on property']",1.0,1.0
1061767567500216225,Classic Ranch close to Uptown Charlotte,,,,,,,,4.0,4.0,17.0,0.0,0.0,58,False,35.19185,-80.76424,False,"['Kitchen', 'Wifi', 'Free parking on premises', 'Pets allowed', '42 inch HDTV with Roku, standard cable', 'Washer', 'Free dryer – In unit', 'Central air conditioning', 'Bathtub', 'Private patio or balcony']",3.0,2.0
1061767567500216225,Classic Ranch close to Uptown Charlotte,0.0,0.0,0.0,0.0,0.0,16.0,,,21.0,22.0,30.0,30.0,55,False,35.19185,-80.76424,False,"['Kitchen', 'Wifi', 'Free parking on premises', 'Pets allowed', '42 inch HDTV with Roku, standard cable', 'Washer', 'Free dryer – In unit', 'Central air conditioning', 'Bathtub', 'Private patio or balcony']",3.0,2.0
1061795189730238914,Modern 3 Bed Condo in Charlotte!,31.0,29.0,26.0,31.0,23.0,19.0,,,2.0,11.0,13.0,23.0,81,False,,,,,3.0,2.0
1062243134717377250,Spacious 2 Bedroom/2 Bathroom in Uptown w/Balcony,19.0,17.0,15.0,12.0,15.0,19.0,,,24.0,29.0,31.0,30.0,58,False,35.21919,-80.84921,True,"['City skyline view', 'Kitchen', 'Wifi', 'Dedicated workspace', 'Free parking on premises', 'Pool', '55 inch TV with Roku', 'Elevator', 'Washer', 'Carbon monoxide alarm']",2.0,2.0
1062300915058642186,"Tiny Space, Tons of Fun",30.0,29.0,25.0,30.0,28.0,21.0,,,,,,,69,False,35.22869,-80.82165,True,"['Kitchen', 'Wifi', 'Dedicated workspace', 'Free parking on premises', 'Pets allowed', 'TV', 'Washer', 'Dryer', 'Air conditioning', 'Smoke alarm']",1.0,1.0
1062359771285368431,Two Large Homes Near Uptown w/GameRoom/HotTubs/BBQ,,,,,,,,16.0,24.0,28.0,0.0,0.0,65,False,35.2058,-80.901,True,"['Kitchen', 'Wifi', 'Dedicated workspace', 'Free parking on premises', 'Hot tub', 'Pets allowed', 'TV', 'Washer', 'Dryer', 'Exterior security cameras on property']",8.0,5.0
1062359771285368431,Two Large Homes Near Uptown w/GameRoom/HotTubs/BBQ,28.0,28.0,0.0,22.0,21.0,24.0,30.0,12.0,,,10.0,23.0,71,False,35.2058,-80.901,True,"['Kitchen', 'Wifi', 'Dedicated workspace', 'Free parking on premises', 'Hot tub', 'Pets allowed', 'TV', 'Washer', 'Dryer', 'Exterior security cameras on property']",8.0,5.0
1062381412635071842,1BR/1BA - Mins to Uptown - Wilmore's Charm Unit A,28.0,20.0,28.0,0.0,0.0,29.0,8.0,0.0,,,,16.0,72,False,35.2158,-80.86942,True,"['Kitchen', 'Wifi', 'Free parking on premises', 'TV', 'Washer', 'Free dryer – In unit', 'Air conditioning', 'Bathtub', 'Shared patio or balcony', 'Exterior security cameras on property']",1.0,1.0
1062517319886992687,NoDa Tree House - 1BR/1BA Studio - Mini Groot,21.0,19.0,28.0,24.0,31.0,25.0,30.0,31.0,,,16.0,25.0,67,False,35.2444,-80.8011,True,"['Kitchen', 'Wifi', 'Dedicated workspace', 'Free parking on premises', 'Hot tub', 'Pets allowed', 'TV', 'Air conditioning', 'Bathtub', 'Exterior security cameras on property']",1.0,1.0
1063051504918959428,Little Bethel in the City,0.0,0.0,24.0,0.0,0.0,0.0,0.0,28.0,,,8.0,21.0,90,False,35.21884,-80.87412,True,"['Kitchen', 'Wifi', 'Dedicated workspace', 'Free parking on premises', 'Private outdoor pool - available all year, heated, pool cover', 'Pets allowed', 'TV', 'Free washer – In unit', 'Free dryer – In unit', 'Exterior security cameras on property']",1.0,1.0
1063440461634283663,Near CLT Airport | 4BD | Backyard | Sleeps 8,22.0,19.0,20.0,23.0,15.0,16.0,14.0,24.0,,,,,73,False,35.148,-80.9827,True,"['Kitchen', 'Wifi', 'Dedicated workspace', 'Free driveway parking on premises', 'TV', 'Washer', 'Dryer', 'Central air conditioning', 'Bathtub', 'Patio or balcony']",4.0,2.5
1063847599895369082,Spacious 3 BR Near DWTN– 7 Min Drive,,,,,,,,,,5.0,7.0,18.0,77,False,35.2563,-80.8464,False,"['City skyline view', 'Kitchen', 'Wifi', 'Dedicated workspace', 'Free multistorey car park on premises', 'TV', 'Washing machine', 'Free dryer – In unit', 'Air conditioning', 'Exterior security cameras on property']",3.0,1.0
1063847599895369082,Spacious 3 BR Near DWTN– 7 Min Drive,16.0,23.0,22.0,12.0,15.0,4.0,0.0,0.0,8.0,0.0,,,85,False,35.2563,-80.8464,False,"['City skyline view', 'Kitchen', 'Wifi', 'Dedicated workspace', 'Free multistorey car park on premises', 'TV', 'Washing machine', 'Free dryer – In unit', 'Air conditioning', 'Exterior security cameras on property']",3.0,1.0
1063855589505412390,Family Getaway |LG Yard| Close to Uptown |,,,,,,,,,,2.0,0.0,20.0,86,False,35.2623,-80.8621,False,"['Kitchen', 'Wifi', 'Dedicated workspace', 'Free parking garage on premises', 'TV', 'Washer', 'Dryer', 'Air conditioning', 'Bathtub', 'Exterior security cameras on property']",4.0,2.0
1063855589505412390,Family Getaway |LG Yard| Close to Uptown |,21.0,14.0,24.0,2.0,23.0,0.0,0.0,15.0,4.0,0.0,,,86,False,35.2623,-80.8621,False,"['Kitchen', 'Wifi', 'Dedicated workspace', 'Free parking garage on premises', 'TV', 'Washer', 'Dryer', 'Air conditioning', 'Bathtub', 'Exterior security cameras on property']",4.0,2.0
1063859343358235814,Lux Deco| King Beds | Near Uptown & Breweries,,,,,,,,,,,,5.0,86,False,35.2679,-80.7777,False,"['Kitchen', 'Wifi', 'Free parking garage on premises', 'TV', 'Washer', 'Free dryer – In unit', 'Air conditioning', 'Bathtub', 'Private patio or balcony', 'Exterior security cameras on property']",3.0,1.5
1063859343358235814,Lux Deco| King Beds | Near Uptown & Breweries,9.0,17.0,26.0,23.0,14.0,14.0,21.0,14.0,7.0,0.0,,,68,False,35.2679,-80.7777,False,"['Kitchen', 'Wifi', 'Free parking garage on premises', 'TV', 'Washer', 'Free dryer – In unit', 'Air conditioning', 'Bathtub', 'Private patio or balcony', 'Exterior security cameras on property']",3.0,1.5
1063867669391419389,Comfy Townhome minutes away from Noda/Uptown,18.0,28.0,31.0,0.0,31.0,28.0,0.0,0.0,30.0,29.0,,,80,False,35.2624,-80.734,False,"['Kitchen', 'Wifi', 'Dedicated workspace', 'Free parking on premises – 2 spaces', '50 inch HDTV with Netflix, Roku, standard cable, Fire TV', 'Central air conditioning', 'Refrigerator', 'Microwave']",2.0,2.0
1064100646664788678,Charming Ranch Near Downtown,,,,,,,,,,,,8.0,90,False,35.26979,-80.87948,True,"['Kitchen', 'Wifi', 'Dedicated workspace', 'Free parking on premises', 'Pets allowed', 'TV', 'Washer', 'Free dryer – In unit', 'Air conditioning', 'Exterior security cameras on property']",3.0,2.0
1064100646664788678,Charming Ranch Near Downtown,7.0,20.0,21.0,15.0,19.0,16.0,12.0,8.0,6.0,9.0,,,84,False,35.26979,-80.87948,True,"['Kitchen', 'Wifi', 'Dedicated workspace', 'Free parking on premises', 'Pets allowed', 'TV', 'Washer', 'Free dryer – In unit', 'Air conditioning', 'Exterior security cameras on property']",3.0,2.0
1065635010481543742,Uptown w/ Heated Pool & Hot Tub | King Suite,,,,,,,,,,,,2.0,80,False,35.28831,-80.71566,False,"['Kitchen', 'Wifi', 'Free parking on premises', 'Pool', 'Hot tub', 'Pets allowed', 'TV', 'Washer', 'Dryer', 'Exterior security cameras on property']",3.0,2.0
1065635010481543742,Uptown w/ Heated Pool & Hot Tub | King Suite,5.0,24.0,12.0,24.0,24.0,28.0,19.0,11.0,9.0,17.0,,,67,False,35.28831,-80.71566,False,"['Kitchen', 'Wifi', 'Free parking on premises', 'Pool', 'Hot tub', 'Pets allowed', 'TV', 'Washer', 'Dryer', 'Exterior security cameras on property']",3.0,2.0
1067599997539203167,1B Executive Travel Nurse Apt,,,,,,,,,,,,14.0,56,False,35.211,-80.81424,False,"['Kitchen', 'Wifi', 'Dedicated workspace', 'Free parking on premises', 'Pets allowed', 'TV', 'Elevator', 'Washer', 'Free dryer', 'Exterior security cameras on property']",1.0,1.0
1067599997539203167,1B Executive Travel Nurse Apt,0.0,3.0,0.0,0.0,28.0,28.0,27.0,19.0,24.0,12.0,,,56,False,35.211,-80.81424,False,"['Kitchen', 'Wifi', 'Dedicated workspace', 'Free parking on premises', 'Pets allowed', 'TV', 'Elevator', 'Washer', 'Free dryer', 'Exterior security cameras on property']",1.0,1.0
1068139641739679481,Cozy & Charming Uptown Stay,,,,,,,,,,,,,60,False,,,,,2.0,2.0
1068139641739679481,Cozy & Charming Uptown Stay,16.0,14.0,24.0,29.0,0.0,0.0,20.0,23.0,22.0,21.0,,,83,False,,,,,2.0,2.0
1068229140206913598,The epitome of urban living,1.0,6.0,6.0,3.0,12.0,2.0,3.0,5.0,6.0,0.0,,,75,False,,,,,2.0,2.0
1068861031449857007,Reluxme| SouthPark 1BR Condo w/ Lux Amenities,,,,,,,,,,,,0.0,76,False,35.15549,-80.79874,False,"['Kitchen', 'Wifi', 'Dedicated workspace', 'Free parking on premises', 'Shared pool', 'Shared hot tub', 'Sauna', 'Pets allowed', 'TV', 'Elevator']",1.0,1.0
1068861031449857007,Reluxme| SouthPark 1BR Condo w/ Lux Amenities,22.0,25.0,27.0,29.0,28.0,19.0,0.0,26.0,21.0,20.0,14.0,0.0,92,False,35.15549,-80.79874,False,"['Kitchen', 'Wifi', 'Dedicated workspace', 'Free parking on premises', 'Shared pool', 'Shared hot tub', 'Sauna', 'Pets allowed', 'TV', 'Elevator']",1.0,1.0
1069119898141470329,"Elegance DT Apt + Gym, Pool, Wine, WKSpace,Parking",,,28.0,27.0,31.0,29.0,26.0,29.0,17.0,26.0,20.0,15.0,75,False,35.2354,-80.84744,True,"['Kitchen', 'Wifi', 'Dedicated workspace', 'Free parking on premises', 'Shared pool', 'Pets allowed', 'TV', 'Elevator', 'Washer', 'Dryer']",1.0,1.0
1069128147866532023,"Chic DT Apt+ Gym, Pool,WKSpace,Free Parking,Wine",,,0.0,0.0,30.0,28.0,25.0,30.0,0.0,30.0,18.0,10.0,60,False,35.23547,-80.84773,True,"['Kitchen', 'Wifi', 'Dedicated workspace', 'Free parking on premises', 'Pool', 'Pets allowed', 'TV', 'Elevator', 'Washer', 'Dryer']",1.0,1.0
1069661751919460226,Beautiful Townhome for couples or small groups,,,,,,,,,,,,,63,False,35.28425,-80.80937,True,"['Kitchen', 'Fast wifi – 50 Mbps', 'Dedicated workspace', 'Free residential garage on premises – 2 spaces', 'Pets allowed', 'TV', 'Free washer – In unit', 'Free dryer – In unit', 'Exterior security cameras on property', 'Carbon monoxide alarm']",2.0,2.5
1069661751919460226,Beautiful Townhome for couples or small groups,,,,16.0,27.0,29.0,0.0,0.0,0.0,21.0,18.0,17.0,73,False,35.28425,-80.80937,True,"['Kitchen', 'Fast wifi – 50 Mbps', 'Dedicated workspace', 'Free residential garage on premises – 2 spaces', 'Pets allowed', 'TV', 'Free washer – In unit', 'Free dryer – In unit', 'Exterior security cameras on property', 'Carbon monoxide alarm']",2.0,2.5
1071030627688412569,1BR/1BA - Mins to Uptown - Wilmore's Charm,,,8.0,18.0,24.0,28.0,31.0,22.0,14.0,27.0,14.0,19.0,81,False,35.21694,-80.86891,True,"['Kitchen', 'Wifi', 'Free parking on premises', 'TV', 'Washer', 'Free dryer – In unit', 'Air conditioning', 'Bathtub', 'Shared patio or balcony', 'Exterior security cameras on property']",1.0,1.0
1071983104575280286,Reluxme | 2BR Condo in Center City w/ Spa Access,,,,,,,,,,,,,53,False,35.23148,-80.84562,False,"['Kitchen', 'Wifi', 'Dedicated workspace', 'Free parking on premises', 'Shared pool', 'Shared hot tub', 'Sauna', 'Pets allowed', 'TV', 'Elevator']",2.0,2.0
1071983104575280286,Reluxme | 2BR Condo in Center City w/ Spa Access,,17.0,27.0,24.0,23.0,26.0,28.0,14.0,26.0,29.0,12.0,11.0,29,False,35.23148,-80.84562,False,"['Kitchen', 'Wifi', 'Dedicated workspace', 'Free parking on premises', 'Shared pool', 'Shared hot tub', 'Sauna', 'Pets allowed', 'TV', 'Elevator']",2.0,2.0
1073161645659190806,Fully Updated 3 BR Ranch Escape - Near WWC/Airport,,,,,,,,,,,,,46,False,35.30596,-80.97185,True,"['Kitchen', 'Wifi', 'Dedicated workspace', 'Free driveway parking on premises – 4 spaces', '50 inch HDTV', 'Free washer – In unit', 'Free dryer – In unit', 'Central air conditioning', 'Bathtub', 'Exterior security cameras on property']",3.0,2.0
1073161645659190806,Fully Updated 3 BR Ranch Escape - Near WWC/Airport,,7.0,29.0,27.0,27.0,26.0,26.0,24.0,30.0,26.0,16.0,5.0,85,False,35.30596,-80.97185,True,"['Kitchen', 'Wifi', 'Dedicated workspace', 'Free driveway parking on premises – 4 spaces', '50 inch HDTV', 'Free washer – In unit', 'Free dryer – In unit', 'Central air conditioning', 'Bathtub', 'Exterior security cameras on property']",3.0,2.0
1073990621018011801,"Chic Loft, Plaza Midwood",,,20.0,24.0,31.0,28.0,31.0,29.0,0.0,0.0,0.0,0.0,97,False,35.23168,-80.80524,True,"['Wifi', 'Dedicated workspace', 'Free parking on premises', 'TV', 'Free washer – In unit', 'Free dryer – In unit', 'Air conditioning', 'Refrigerator']",1.0,1.0
1074108393298061524,Charming 3 Bedroom A-Frame South Park/South End,,,,,,,,,,,,,60,False,35.15399,-80.8714,True,"['Kitchen', 'Wifi', 'Dedicated workspace', 'Free driveway parking on premises', 'TV', 'Free washer – In unit', 'Free dryer – In unit', 'Central air conditioning', 'Bathtub', 'Exterior security cameras on property']",3.0,1.5
1074108393298061524,Charming 3 Bedroom A-Frame South Park/South End,,10.0,23.0,16.0,8.0,16.0,22.0,17.0,20.0,11.0,0.0,8.0,77,False,35.15399,-80.8714,True,"['Kitchen', 'Wifi', 'Dedicated workspace', 'Free driveway parking on premises', 'TV', 'Free washer – In unit', 'Free dryer – In unit', 'Central air conditioning', 'Bathtub', 'Exterior security cameras on property']",3.0,1.5
1074108393298061524,Charming 3 Bedroom A-Frame South Park/South End,30.0,31.0,,,,,,,,,,,89,False,35.15399,-80.8714,True,"['Kitchen', 'Wifi', 'Dedicated workspace', 'Free driveway parking on premises', 'TV', 'Free washer – In unit', 'Free dryer – In unit', 'Central air conditioning', 'Bathtub', 'Exterior security cameras on property']",3.0,1.5
1074662930378949442,The Brown House,,,,,,,,,4.0,21.0,1.0,20.0,45,False,35.107,-80.7187,True,"['Kitchen', 'Wifi', 'Free driveway parking on premises', 'Pets allowed', '50 inch HDTV with Amazon Prime Video, Apple TV, Disney+, Hulu, Netflix, Roku', 'Free washer – In unit', 'Free dryer – In unit', 'Central air conditioning', 'Bathtub', 'Exterior security cameras on property']",3.0,1.5
1074662930378949442,The Brown House,18.0,16.0,,,,,,,,,,,65,False,35.107,-80.7187,True,"['Kitchen', 'Wifi', 'Free driveway parking on premises', 'Pets allowed', '50 inch HDTV with Amazon Prime Video, Apple TV, Disney+, Hulu, Netflix, Roku', 'Free washer – In unit', 'Free dryer – In unit', 'Central air conditioning', 'Bathtub', 'Exterior security cameras on property']",3.0,1.5
1074915647916952569,"Modern Home 3bd, 11min to uptown",,,,,,,,24.0,15.0,16.0,18.0,12.0,52,False,35.29264,-80.87535,True,"['Kitchen', 'Wifi', 'Free parking on premises', 'TV', 'Free washer', 'Free dryer', 'Air conditioning', 'Bathtub', 'Shared backyard', 'Exterior security cameras on property']",3.0,2.5
1074915647916952569,"Modern Home 3bd, 11min to uptown",10.0,12.0,,,10.0,13.0,18.0,21.0,19.0,22.0,15.0,18.0,52,False,35.29264,-80.87535,True,"['Kitchen', 'Wifi', 'Free parking on premises', 'TV', 'Free washer', 'Free dryer', 'Air conditioning', 'Bathtub', 'Shared backyard', 'Exterior security cameras on property']",3.0,2.5
1074918158432002268,1 Bedroom - Casa del Ward,14.0,12.0,,,,,,,,,,,74,False,,,,,1.0,2.0
1074946068088807613,Pemman house,,,,2.0,19.0,14.0,21.0,21.0,14.0,15.0,2.0,7.0,61,False,35.08407,-80.86936,True,"['Kitchen', 'Wifi', 'Dedicated workspace', 'Free parking on premises', 'TV', 'Washer', 'Free dryer – In unit', 'Air conditioning', 'Patio or balcony', 'Private backyard']",3.0,2.5
1074946068088807613,Pemman house,9.0,8.0,,,,19.0,31.0,30.0,31.0,0.0,0.0,0.0,72,False,35.08407,-80.86936,True,"['Kitchen', 'Wifi', 'Dedicated workspace', 'Free parking on premises', 'TV', 'Washer', 'Free dryer – In unit', 'Air conditioning', 'Patio or balcony', 'Private backyard']",3.0,2.5
1075314149537016548,Charming 4 Bed Ranch close to Downtown!,0.0,3.0,,,,,,,,,,,59,False,,,,,4.0,2.0
1076092496586067804,The Carriage Loft - Modern Studio Apt,,10.0,27.0,0.0,0.0,31.0,25.0,24.0,22.0,19.0,10.0,13.0,69,False,35.20471,-80.78709,True,"['Kitchen', 'Wifi', 'Dedicated workspace', 'Free driveway parking on premises – 1 space', 'Pets allowed', 'TV', 'Washing machine', 'Dryer', 'Air conditioning', 'Hair dryer']",0.0,1.0
1076092496586067804,The Carriage Loft - Modern Studio Apt,16.0,19.0,,,,,,,,,,,74,False,35.20471,-80.78709,True,"['Kitchen', 'Wifi', 'Dedicated workspace', 'Free driveway parking on premises – 1 space', 'Pets allowed', 'TV', 'Washing machine', 'Dryer', 'Air conditioning', 'Hair dryer']",0.0,1.0
1076146138598469868,the Roanoke-Remodeled Mid-Century East Side Escape,,,24.0,24.0,24.0,28.0,29.0,18.0,28.0,22.0,19.0,26.0,70,False,35.20574,-80.78106,True,"['Kitchen', 'Wifi', 'Dedicated workspace', 'Free driveway parking on premises – 3 spaces', '55 inch HDTV with Apple TV, Disney+, HBO Max, Hulu, Netflix, Fire TV, Roku', 'EV charger - level 2', 'Washer', 'Dryer', 'Central air conditioning', 'Exterior security cameras on property']",3.0,1.5
1076146138598469868,the Roanoke-Remodeled Mid-Century East Side Escape,22.0,22.0,,,3.0,24.0,24.0,23.0,26.0,23.0,22.0,26.0,56,False,35.20574,-80.78106,True,"['Kitchen', 'Wifi', 'Dedicated workspace', 'Free driveway parking on premises – 3 spaces', '55 inch HDTV with Apple TV, Disney+, HBO Max, Hulu, Netflix, Fire TV, Roku', 'EV charger - level 2', 'Washer', 'Dryer', 'Central air conditioning', 'Exterior security cameras on property']",3.0,1.5
1076394425326365000,Quaint Single Story Ranch in Safe Area,18.0,9.0,,,6.0,25.0,30.0,19.0,31.0,28.0,18.0,29.0,86,False,,,,,3.0,2.0
1076633442242319768,Updated Kingbed House 9 min to Uptown.,22.0,0.0,,,,,,,,,,,49,False,35.26444,-80.92796,True,"['Garden view', 'Kitchen', 'Fast wifi – 347 Mbps', 'Dedicated workspace', 'Free driveway parking on premises – 3 spaces', '50 inch HDTV with Roku', 'Free washer – In unit', 'Free dryer – In unit', 'Central air conditioning', 'Exterior security cameras on property']",3.0,2.0
1076788536507588950,SuperQuiet 2B Cozy with Covered Garage for 3 Cars,,1.0,4.0,31.0,11.0,19.0,30.0,17.0,25.0,27.0,13.0,14.0,87,False,,,,,2.0,1.5
1076788536507588950,SuperQuiet 2B Cozy with Covered Garage for 3 Cars,26.0,0.0,,,,,,,,,,,68,False,,,,,2.0,1.5
1076804376028135623,Reluxme | Modern 2BR Apt in Center City w/Parking,,,,,0.0,25.0,16.0,0.0,24.0,25.0,24.0,25.0,53,False,35.23211,-80.8462,False,"['Kitchen', 'Wifi', 'Dedicated workspace', 'Free parking on premises', 'Shared pool', 'Shared hot tub', 'Sauna', 'Pets allowed', 'TV', 'Elevator']",2.0,2.0
1076804376028135623,Reluxme | Modern 2BR Apt in Center City w/Parking,13.0,3.0,,,,,,,,,,,75,False,35.23211,-80.8462,False,"['Kitchen', 'Wifi', 'Dedicated workspace', 'Free parking on premises', 'Shared pool', 'Shared hot tub', 'Sauna', 'Pets allowed', 'TV', 'Elevator']",2.0,2.0
1077704012968215976,The Charlotte Boho Chateaux,,6.0,28.0,30.0,27.0,30.0,28.0,22.0,28.0,27.0,9.0,20.0,61,False,35.2564,-80.9107,False,"['Kitchen', 'Wifi', 'Free parking on premises', 'TV', 'Central air conditioning', 'Backyard', 'Refrigerator', 'Microwave']",1.0,1.0
1077704012968215976,The Charlotte Boho Chateaux,17.0,1.0,,,,,,,,,,,61,False,35.2564,-80.9107,False,"['Kitchen', 'Wifi', 'Free parking on premises', 'TV', 'Central air conditioning', 'Backyard', 'Refrigerator', 'Microwave']",1.0,1.0
1079027639609895946,Ideal for group trips or teams,,,,3.0,21.0,16.0,15.0,24.0,18.0,17.0,14.0,13.0,41,False,35.21005,-80.79803,True,"['Kitchen', 'Wifi', 'Dedicated workspace', 'Free parking on premises', 'Pets allowed', 'TV with standard cable', 'Washer', 'Dryer', 'Air conditioning', 'Exterior security cameras on property']",5.0,4.0
1079027639609895946,Ideal for group trips or teams,13.0,12.0,,,,,,,,,,,57,False,35.21005,-80.79803,True,"['Kitchen', 'Wifi', 'Dedicated workspace', 'Free parking on premises', 'Pets allowed', 'TV with standard cable', 'Washer', 'Dryer', 'Air conditioning', 'Exterior security cameras on property']",5.0,4.0
1079882632887745672,Uptown Gem 2 - Stadium Adjacent,,,,,,,,24.0,5.0,5.0,0.0,3.0,64,False,35.23004,-80.85466,True,"['City skyline view', 'Kitchen', 'Wifi', 'Dedicated workspace', 'Free driveway parking on premises – 2 spaces', 'Pets allowed', 'TV', 'Washer', 'Dryer', 'Exterior security cameras on property']",3.0,3.0
1079882632887745672,Uptown Gem 2 - Stadium Adjacent,16.0,4.0,,,,14.0,28.0,29.0,19.0,26.0,12.0,30.0,67,False,35.23004,-80.85466,True,"['City skyline view', 'Kitchen', 'Wifi', 'Dedicated workspace', 'Free driveway parking on premises – 2 spaces', 'Pets allowed', 'TV', 'Washer', 'Dryer', 'Exterior security cameras on property']",3.0,3.0
1080001587122905775,Bungalow w/ spacious outdoor space,18.0,7.0,,,,,,,,,,,67,False,35.2373,-80.7919,True,"['Kitchen', 'Wifi', 'Dedicated workspace', 'Free parking on premises', 'Pets allowed', 'TV', 'Washer', 'Dryer', 'Air conditioning', 'Exterior security cameras on property']",2.0,1.0
1080388735020954918,Long Term Rental: Four bedroom with nursery,,,,,8.0,6.0,1.0,20.0,30.0,17.0,26.0,14.0,76,False,35.3577,-80.77561,True,"['Kitchen', 'Wifi', 'Dedicated workspace', 'Free parking on premises', 'Shared pool', 'TV', 'Washing machine', 'Free dryer – In unit', 'Air conditioning', 'Exterior security cameras on property']",3.0,2.5
1080388735020954918,Four bedroom with nursery,10.0,14.0,,,,24.0,31.0,29.0,28.0,30.0,23.0,24.0,59,False,35.3577,-80.77561,True,"['Kitchen', 'Wifi', 'Dedicated workspace', 'Free parking on premises', 'Shared pool', 'TV', 'Washing machine', 'Free dryer – In unit', 'Air conditioning', 'Exterior security cameras on property']",3.0,2.5
1080541733564956616,4th Ward Condo walkable to stadium and arena,30.0,23.0,,,,1.0,6.0,2.0,16.0,17.0,30.0,18.0,70,False,,,,,2.0,1.0
1080554211462764181,Lakehouse,0.0,0.0,,,,27.0,31.0,30.0,20.0,29.0,7.0,30.0,72,False,,,,,3.0,2.5
1081224894295495054,Pineville by the Park,24.0,17.0,,,,12.0,18.0,6.0,6.0,1.0,0.0,21.0,86,False,35.0868,-80.8956,False,"['Kitchen', 'Wifi', 'Dedicated workspace', 'Free parking on premises', 'Pets allowed', 'TV', 'Free washer – In unit', 'Free dryer – In unit', 'Air conditioning', 'Bathtub']",1.0,1.0
1081444488491525558,New home right by the airport! With gold accents,13.0,17.0,,,,,,,,,,,60,False,35.24256,-80.94844,True,"['Kitchen', 'Wifi', 'Free parking on premises', 'Pets allowed', 'TV', 'Washer', 'Dryer', 'Air conditioning', 'Bathtub', 'Exterior security cameras on property']",4.0,2.0
